
mintime: 1121832000 maxtime: 1123534363.36
numimgs: 3
total pages: 1
visiting only 1 pages ( up to 250 images)
photo: 27470236 2d08983d35 21
owner: 54289096@N00
title: Schreber's Aster
originalsecret: 2d08983d35
originalformat: jpg
o_height: 640
o_width: 480
datetaken: 2005-07-20 22:22:21
dateupload: 1121912541
tags: flowers white nature aster bga manypetals 20010703 asterschreberi wfgna schrebersaster zensutherland
license: 1
latitude: 35.612759
longitude: -82.566150
accuracy: 16
views: 174
interestingness: 1 out of 3

photo: 27470234 38f431550f 23
owner: 54289096@N00
title: Stokes Aster
originalsecret: 38f431550f
originalformat: jpg
o_height: 480
o_width: 640
datetaken: 2005-07-20 22:22:21
dateupload: 1121912541
tags: flowers nature purple bga stokesaster stokesialaevis stokesia manypetals 20010703 wfgna zensutherland
license: 1
latitude: 35.612759
longitude: -82.566150
accuracy: 16
views: 310
interestingness: 2 out of 3

photo: 27470235 a600977477 23
owner: 54289096@N00
title: Stokes Aster
originalsecret: a600977477
originalformat: jpg
o_height: 518
o_width: 443
datetaken: 2005-07-20 22:22:21
dateupload: 1121912541
tags: flowers nature purple bga stokesaster stokesialaevis stokesia manypetals 20010703 wfgna zensutherland
license: 1
latitude: 35.612759
longitude: -82.566150
accuracy: 16
views: 247
interestingness: 3 out of 3


mintime: 1123534363.36 maxtime: 1157076254.78
numimgs: 79
total pages: 1
visiting only 1 pages ( up to 250 images)
photo: 117272788 9e27758471 53
owner: 73992036@N00
title: Tree at the Rock Hill Blackjacks Heritage Preserve
originalsecret: 9e27758471
originalformat: jpg
o_height: null
o_width: null
datetaken: 2006-03-24 08:52:53
dateupload: 1143223732
tags: autostitch panorama tree heritage sc geotagged interestingness interesting oak quercus pano southcarolina 360 fv5 carolina d100 preserve lonelytree rockhill equirectangular blackjacks 180?x360? psphere rockhillblackjacksheritagepreserve heritagepreserve geolat34903192073328 geolon81022053645725
license: 0
latitude: 34.903192
longitude: -81.022053
accuracy: 16
views: 9626
interestingness: 1 out of 79

photo: 51012882 cfef4c3bbc 32
owner: 32257321@N00
title: Asters
originalsecret: null
originalformat: null
o_height: null
o_width: null
datetaken: 2005-10-01 00:00:00
dateupload: 1128909365
tags: 2005 flower flora flickr fave bloom flowerpower aster abigfave pinkalicious ultimateshot
license: 0
latitude: 48.199048
longitude: -122.162475
accuracy: 8
views: 443
interestingness: 2 out of 79

photo: 196021827 b5b0ea476a 68
owner: 56428965@N00
title: Aster pink
originalsecret: b5b0ea476a
originalformat: jpg
o_height: 1536
o_width: 2048
datetaken: 2005-09-24 12:56:53
dateupload: 1153651506
tags: aster stevecarter cstevecarter
license: 0
latitude: 51.704108
longitude: -0.410141
accuracy: 14
views: 652
interestingness: 3 out of 79

photo: 171399266 b4a1cd4373 66
owner: 73874748@N00
title: Stokes Aster
originalsecret: null
originalformat: null
o_height: null
o_width: null
datetaken: 2006-06-15 14:55:16
dateupload: 1150825905
tags: flowers garden botanical nc northcarolina chapelhill aswpix
license: 0
latitude: 35.899053
longitude: -79.034045
accuracy: 16
views: 386
interestingness: 4 out of 79

photo: 103917890 767bfa9608 28
owner: 22443621@N00
title: Aster
originalsecret: 767bfa9608
originalformat: jpg
o_height: 768
o_width: 1024
datetaken: 2006-02-22 17:38:00
dateupload: 1140816285
tags: torino aster paralympics winterolympics torino2006
license: 1
latitude: 45.069766
longitude: 7.677823
accuracy: 16
views: 588
interestingness: 5 out of 79

photo: 207840757 9552077de6 87
owner: 94726088@N00
title: Taubenschw?nzchen
originalsecret: null
originalformat: null
o_height: null
o_width: null
datetaken: 2009-01-27 09:08:38
dateupload: 1154853224
tags: sommer blumen an lilie aster schmetterling goldfinger einsam flug sonnenhut mammut urzeit anflug r?ssel fuchsschwanz mutig schau f?hler heidenheim schwalbenschw?nzchen
license: 0
latitude: 48.687171
longitude: 10.155733
accuracy: 16
views: 391
interestingness: 6 out of 79

photo: 46917730 5777673622 27
owner: 14376476@N00
title: Mt. Baker in Autumn
originalsecret: 5777673622
originalformat: jpg
o_height: null
o_width: null
datetaken: 2005-09-26 15:45:37
dateupload: 1127777233
tags: northcascades washington volcano glacier yellow blue mountains mtbaker mtbakerwilderness cascades sep05yab
license: 3
latitude: 48.956551
longitude: -121.682338
accuracy: 12
views: 298
interestingness: 7 out of 79

photo: 213985200 0f5c9842a7 82
owner: 22317945@N00
title: Ester & Mordekhay mausoleum?
originalsecret: null
originalformat: null
o_height: null
o_width: null
datetaken: 2006-08-10 19:22:20
dateupload: 1155477950
tags: ????? hamedan aster ??????? mordkhaai ???? ?????? ????? upcomingevent91483
license: 0
latitude: 34.770383
longitude: 48.578109
accuracy: 11
views: 497
interestingness: 8 out of 79

photo: 137753585 f3a405d281 46
owner: 83418416@N00
title: Bellis perennis
originalsecret: null
originalformat: null
o_height: null
o_width: null
datetaken: 2006-04-28 02:40:24
dateupload: 1146433663
tags: pink flowers flower 2006 daisy april bbg brooklynbotanicgarden asteraceae bellis vanswearingen perennis
license: 0
latitude: 40.668448
longitude: -73.964638
accuracy: 15
views: 533
interestingness: 9 out of 79

photo: 134764551 6dfa416bb8 55
owner: 70715193@N00
title: Wild Aster
originalsecret: null
originalformat: null
o_height: null
o_width: null
datetaken: 2006-04-25 04:16:34
dateupload: 1145963794
tags: blue ontario canada wildflower nativespecies stayner wildaster
license: 0
latitude: 44.444780
longitude: -80.100545
accuracy: 13
views: 177
interestingness: 10 out of 79

photo: 54577538 82e1f15026 30
owner: 87838561@N00
title: frosted aster
originalsecret: null
originalformat: null
o_height: null
o_width: null
datetaken: 2005-10-21 08:34:38
dateupload: 1129904152
tags: 2005 usa flower october vermont frost purple d70 montgomery nikkor aster 60mmf28dmicro
license: 0
latitude: 44.900510
longitude: -72.636966
accuracy: 11
views: 154
interestingness: 11 out of 79

photo: 46917696 63a5c4efa9 29
owner: 14376476@N00
title: Mt. Shuksan
originalsecret: 63a5c4efa9
originalformat: jpg
o_height: null
o_width: null
datetaken: 2005-09-24 14:39:05
dateupload: 1127777227
tags: northcascadesnationalpark northcascades washington glacier alpine mtshuksan green blue mountains cascades sep05yab
license: 3
latitude: 48.956551
longitude: -121.682338
accuracy: 12
views: 294
interestingness: 12 out of 79

photo: 2518881143 12554988d9 3243
owner: 75683070@N00
title: Sipapu Bridge, Natural Bridges NM 2
originalsecret: 8cd3afca6c
originalformat: jpg
o_height: 771
o_width: 1156
datetaken: 2001-06-27 09:41:00
dateupload: 1132479110
tags: america utah us sanjuan redrock
license: 5
latitude: 37.616126
longitude: -110.011446
accuracy: 15
views: 3937
interestingness: 13 out of 79

photo: 54577414 3517f7a555 28
owner: 87838561@N00
title: frosted aster
originalsecret: null
originalformat: null
o_height: null
o_width: null
datetaken: 2005-10-21 08:32:53
dateupload: 1129904115
tags: 2005 usa flower october vermont frost purple d70 montgomery nikkor aster 60mmf28dmicro
license: 0
latitude: 44.900510
longitude: -72.636966
accuracy: 11
views: 129
interestingness: 14 out of 79

photo: 61179908 744cde887b 33
owner: 83418416@N00
title: Mary Stoker Aster
originalsecret: null
originalformat: null
o_height: null
o_width: null
datetaken: 2005-11-06 14:59:27
dateupload: 1131435624
tags: 2005 november white brooklyn mary bbg brooklynbotanicgarden chrysanthemum stoker aster compositae vanswearingen
license: 0
latitude: 40.668448
longitude: -73.964638
accuracy: 15
views: 389
interestingness: 15 out of 79

photo: 91175868 f66894f7d1 32
owner: 75683070@N00
title: Tuolumne Meadows, Yosemite National Park, California
originalsecret: f66894f7d1
originalformat: jpg
o_height: 960
o_width: 1280
datetaken: 2005-07-07 08:39:58
dateupload: 1132542192
tags: california yosemite sierras sierranevada sierranevadas centralvalley
license: 5
latitude: 37.876039
longitude: -119.355275
accuracy: 15
views: 590
interestingness: 16 out of 79

photo: 91175922 0e59fd7cfd 38
owner: 75683070@N00
title: Tuolumne Meadows, Yosemite National Park, California
originalsecret: 0e59fd7cfd
originalformat: jpg
o_height: 960
o_width: 1280
datetaken: 2005-07-07 08:47:11
dateupload: 1132542194
tags: california yosemite sierras sierranevada sierranevadas centralvalley
license: 5
latitude: 37.876039
longitude: -119.355275
accuracy: 15
views: 607
interestingness: 17 out of 79

photo: 50991744 7a0ddec4f6 27
owner: 74337311@N00
title: door county apples
originalsecret: 7a0ddec4f6
originalformat: jpg
o_height: null
o_width: null
datetaken: 2005-10-09 10:25:38
dateupload: 1128905204
tags: orchard apple aster doorcounty wisconsin fall cold nice
license: 0
latitude: 45.154442
longitude: -87.209472
accuracy: 9
views: 127
interestingness: 18 out of 79

photo: 91175839 8273029d0f 27
owner: 75683070@N00
title: Tuolumne River, Tuolumne Meadows, Yosemite National Park, California
originalsecret: 8273029d0f
originalformat: jpg
o_height: 960
o_width: 1280
datetaken: 2005-07-07 08:39:11
dateupload: 1132542190
tags: california yosemite sierras sierranevada sierranevadas centralvalley
license: 5
latitude: 37.876039
longitude: -119.355275
accuracy: 15
views: 564
interestingness: 19 out of 79

photo: 91175942 7a48edb968 33
owner: 75683070@N00
title: Tuolumne Meadows, Yosemite National Park, California
originalsecret: 7a48edb968
originalformat: jpg
o_height: 960
o_width: 1280
datetaken: 2005-07-07 08:51:34
dateupload: 1132542198
tags: california yosemite sierras sierranevada sierranevadas centralvalley
license: 5
latitude: 37.872355
longitude: -119.371776
accuracy: 15
views: 532
interestingness: 20 out of 79

photo: 1130676576 e9fb5e9524 1134
owner: 8568946@N06
title: Wild Asters
originalsecret: 1dca2672c9
originalformat: jpg
o_height: null
o_width: null
datetaken: 2005-09-04 12:18:57
dateupload: 1138653478
tags: ranch wild mountains rockies colorado purple altitude rocky pikespeak rugged aster twinrocks muellerstatepark blazym
license: 4
latitude: 38.845544
longitude: -105.241116
accuracy: 16
views: 322
interestingness: 21 out of 79

photo: 1129838285 a315fa5e03 1329
owner: 8568946@N06
title: Wild Asters
originalsecret: 563824e67e
originalformat: jpg
o_height: null
o_width: null
datetaken: 2005-09-24 11:48:37
dateupload: 1138653702
tags: ranch wild mountains flower rockies colorado purple altitude rocky bloom pikespeak rugged aster twinrocks muellerstatepark blazym
license: 4
latitude: 38.845544
longitude: -105.241116
accuracy: 16
views: 431
interestingness: 22 out of 79

photo: 71879871 9f041bb74c 20
owner: 18347350@N00
title: DSC02152.JPG
originalsecret: 9f041bb74c
originalformat: jpg
o_height: null
o_width: null
datetaken: 2005-12-08 13:35:58
dateupload: 1134164770
tags: winter snow garden river oats purple coneflower new england aster orange
license: 0
latitude: 38.104575
longitude: -90.358600
accuracy: 13
views: 171
interestingness: 23 out of 79

photo: 91175970 db3158f4f2 18
owner: 75683070@N00
title: Tuolumne Meadows, Yosemite National Park, California
originalsecret: db3158f4f2
originalformat: jpg
o_height: 960
o_width: 1280
datetaken: 2005-07-07 08:52:24
dateupload: 1132542199
tags: california yosemite sierras sierranevada sierranevadas centralvalley
license: 5
latitude: 37.872355
longitude: -119.371776
accuracy: 15
views: 493
interestingness: 24 out of 79

photo: 181219285 ebd5c81736 72
owner: 93402044@N00
title: gb!aster
originalsecret: ebd5c81736
originalformat: jpg
o_height: null
o_width: null
datetaken: 2006-06-17 13:36:23
dateupload: 1151980427
tags: 
license: 5
latitude: 38.743255
longitude: -9.169828
accuracy: 16
views: 97
interestingness: 25 out of 79

photo: 107621416 7bce8d2f6b 49
owner: 21791827@N00
title: aster(isk)
originalsecret: 7bce8d2f6b
originalformat: jpg
o_height: null
o_width: null
datetaken: 2006-03-04 12:47:48
dateupload: 1141485335
tags: torino aster paralympic
license: 1
latitude: 45.080066
longitude: 7.682189
accuracy: 11
views: 226
interestingness: 26 out of 79

photo: 217984417 9d428e5c68 92
owner: 93421516@N00
title: 
originalsecret: 9d428e5c68
originalformat: jpg
o_height: null
o_width: null
datetaken: 2006-08-17 15:27:38
dateupload: 1155853658
tags: pink flower film violet slovakia agfa 50mmf18d aster montains rsx agfarsx alpinus asteralpinus
license: 3
latitude: 49.167675
longitude: 20.289859
accuracy: 12
views: 245
interestingness: 27 out of 79

photo: 114892921 0e9d19b187 37
owner: 47305696@N00
title: Premios Aster (XXIV Convocatoria - 2006)
originalsecret: 0e9d19b187
originalformat: jpg
o_height: null
o_width: null
datetaken: 2006-03-19 23:30:53
dateupload: 1142807453
tags: logo premios aster convocatoria xxiv esic
license: 0
latitude: 37.371640
longitude: -5.981326
accuracy: 14
views: 55
interestingness: 28 out of 79

photo: 48690786 a5ae01bb3b 26
owner: 79953248@N00
title: White Asters and Goldenrod
originalsecret: null
originalformat: null
o_height: null
o_width: null
datetaken: 2005-10-02 08:43:07
dateupload: 1128277045
tags: 2005 park flowers newjersey october nj tatum valann valann422
license: 0
latitude: 40.386500
longitude: -74.138231
accuracy: 13
views: 85
interestingness: 29 out of 79

photo: 54577363 96b91c193c 27
owner: 87838561@N00
title: frosted aster
originalsecret: null
originalformat: null
o_height: null
o_width: null
datetaken: 2005-10-21 08:32:44
dateupload: 1129904101
tags: 2005 usa flower october vermont frost purple d70 montgomery aster
license: 0
latitude: 44.900510
longitude: -72.636966
accuracy: 11
views: 80
interestingness: 30 out of 79

photo: 98265556 be9eefa74a 36
owner: 22417762@N00
title: Pieris Rapae
originalsecret: null
originalformat: null
o_height: null
o_width: null
datetaken: 2006-02-11 15:16:42
dateupload: 1139672042
tags: nature butterfly photography wildlife conservation environmental hong kong lee environment anita protection
license: 0
latitude: 22.464340
longitude: 114.147949
accuracy: 9
views: 97
interestingness: 31 out of 79

photo: 56975904 e80c322b36 29
owner: 86716264@N00
title: Slate Run
originalsecret: null
originalformat: null
o_height: null
o_width: null
datetaken: 2005-10-28 16:50:46
dateupload: 1130533386
tags: park autumn trees columbus ohio yellow purple goldenrod aster slaterun columbusohioparks
license: 0
latitude: 39.764560
longitude: -82.850952
accuracy: 16
views: 136
interestingness: 32 out of 79

photo: 50991742 3e2c1ea372 27
owner: 74337311@N00
title: Asters
originalsecret: 3e2c1ea372
originalformat: jpg
o_height: null
o_width: null
datetaken: 2005-10-09 10:32:54
dateupload: 1128905204
tags: orchard apple aster doorcounty wisconsin fall cold nice autumn
license: 0
latitude: 45.154442
longitude: -87.209472
accuracy: 9
views: 56
interestingness: 33 out of 79

photo: 56975923 0e50c8f611 27
owner: 86716264@N00
title: Slate Run
originalsecret: null
originalformat: null
o_height: null
o_width: null
datetaken: 2005-10-28 16:53:29
dateupload: 1130533392
tags: park autumn trees columbus ohio yellow meadow goldenrod aster pruple slaterun columbusohioparks
license: 0
latitude: 39.764560
longitude: -82.850952
accuracy: 16
views: 95
interestingness: 34 out of 79

photo: 2518878761 2b10ef9ac1 2007
owner: 75683070@N00
title: Welcome to Natural Bridges National Monument
originalsecret: c098facf0c
originalformat: jpg
o_height: 764
o_width: 1146
datetaken: 2001-06-27 09:30:00
dateupload: 1132479100
tags: america utah us sanjuan redrock
license: 5
latitude: 37.608384
longitude: -109.966278
accuracy: 13
views: 3737
interestingness: 35 out of 79

photo: 2518879985 c83d07bc08 3173
owner: 75683070@N00
title: Sipapu Bridge, Natural Bridges NM
originalsecret: be3e4ae50f
originalformat: jpg
o_height: 779
o_width: 1169
datetaken: 2001-06-27 09:40:00
dateupload: 1132479105
tags: america utah us sanjuan redrock
license: 5
latitude: 37.616126
longitude: -110.011446
accuracy: 15
views: 3273
interestingness: 36 out of 79

photo: 2519701112 e006360a39 2393
owner: 75683070@N00
title: Kachina Bridge, Natural Bridges NM
originalsecret: 37a47e4d55
originalformat: jpg
o_height: 771
o_width: 1156
datetaken: 2001-06-27 09:50:00
dateupload: 1132479115
tags: america utah us sanjuan redrock
license: 5
latitude: 37.597325
longitude: -110.033268
accuracy: 15
views: 3440
interestingness: 37 out of 79

photo: 53967207 a63574f4fb 26
owner: 92237387@N00
title: Aster
originalsecret: a63574f4fb
originalformat: jpg
o_height: 1704
o_width: 2272
datetaken: 2005-04-25 16:29:26
dateupload: 1129706934
tags: flowers aster
license: 1
latitude: 51.100738
longitude: -114.182487
accuracy: 15
views: 95
interestingness: 38 out of 79

photo: 46385248 85a79b8692 28
owner: 87838561@N00
title: purple asters
originalsecret: null
originalformat: null
o_height: null
o_width: null
datetaken: 2005-09-23 15:13:05
dateupload: 1127654876
tags: 2005 usa flower vermont purple d70 september montgomery aster
license: 0
latitude: 44.900510
longitude: -72.636966
accuracy: 11
views: 48
interestingness: 39 out of 79

photo: 54577474 1dea687447 31
owner: 87838561@N00
title: frosted aster
originalsecret: null
originalformat: null
o_height: null
o_width: null
datetaken: 2005-10-21 08:34:10
dateupload: 1129904137
tags: 2005 usa flower october vermont frost purple d70 montgomery aster
license: 0
latitude: 44.900510
longitude: -72.636966
accuracy: 11
views: 84
interestingness: 40 out of 79

photo: 194482560 67c2da9b0e 58
owner: 96131901@N00
title: july 20th 2006
originalsecret: 67c2da9b0e
originalformat: jpg
o_height: null
o_width: null
datetaken: 2006-07-20 08:55:36
dateupload: 1153455718
tags: alaska
license: 0
latitude: 61.527441
longitude: -149.008598
accuracy: 12
views: 31
interestingness: 41 out of 79

photo: 217728327 7d77f733a4 37
owner: 39801965@N00
title: Aster and Clover
originalsecret: 7d77f733a4
originalformat: jpg
o_height: null
o_width: null
datetaken: 2004-07-24 16:11:05
dateupload: 1155829298
tags: flower spider clover aster
license: 3
latitude: 47.616809
longitude: -93.799896
accuracy: 9
views: 75
interestingness: 42 out of 79

photo: 33062027 f5e924219d 22
owner: 71099952@N00
title: The View from the Top
originalsecret: f5e924219d
originalformat: jpg
o_height: 1200
o_width: 1600
datetaken: 2005-07-04 16:08:16
dateupload: 1123731884
tags: yellowasterbutte whatcomcounty washington
license: 0
latitude: 48.955405
longitude: -121.679585
accuracy: 16
views: 44
interestingness: 43 out of 79

photo: 55323642 b40a196471 32
owner: 86716264@N00
title: Highbanks
originalsecret: null
originalformat: null
o_height: null
o_width: null
datetaken: 2005-10-15 13:13:54
dateupload: 1130102575
tags: columbus ohio flower purple aster columbusohioparks
license: 0
latitude: 40.152440
longitude: -83.029518
accuracy: 12
views: 56
interestingness: 44 out of 79

photo: 116376382 d05c2aa771 48
owner: 80707816@N00
title: ??????(Aster scaber)
originalsecret: d05c2aa771
originalformat: jpg
o_height: 1600
o_width: 1200
datetaken: 2005-08-21 09:45:07
dateupload: 1143043133
tags: 2005 plants august miyagi fam?asteraceae fam???? gen????? gen?aster ajishima photobyty
license: 0
latitude: 38.267297
longitude: 141.477470
accuracy: 11
views: 126
interestingness: 45 out of 79

photo: 206326097 8886f178f8 81
owner: 55177830@N00
title: Sea aster (Tripolium vulgare)
originalsecret: null
originalformat: null
o_height: null
o_width: null
datetaken: 2006-07-23 12:00:04
dateupload: 1154677216
tags: sea nature finland rocks finnish unescoworldheritage vaasa vasa raippaluoto ?sterbotten ostrobothnia seaaster replot korsholm strandaster vallgrund tripoliumvulgare
license: 0
latitude: 63.133455
longitude: 21.223526
accuracy: 12
views: 174
interestingness: 46 out of 79

photo: 221671914 982e93b3ba 76
owner: 20209085@N00
title: Pink Cosmos and Bumblebee
originalsecret: 982e93b3ba
originalformat: jpg
o_height: null
o_width: null
datetaken: 2006-08-17 15:28:53
dateupload: 1156217784
tags: pink flower garden insect bc 2006 victoria bee bumblebee butchartgardens botanicalgardens butchart bombus pollination cosmosbipinnatus mexicanaster
license: 2
latitude: 48.563312
longitude: -123.464218
accuracy: 16
views: 85
interestingness: 47 out of 79

photo: 50991743 a1322a0fb3 30
owner: 74337311@N00
title: aster
originalsecret: a1322a0fb3
originalformat: jpg
o_height: null
o_width: null
datetaken: 2005-10-09 10:33:07
dateupload: 1128905204
tags: orchard apple aster doorcounty wisconsin fall cold nice
license: 0
latitude: 45.154442
longitude: -87.209472
accuracy: 9
views: 52
interestingness: 48 out of 79

photo: 219330271 30d8e1572b 82
owner: 15528709@N00
title: Bee with yellow aster
originalsecret: null
originalformat: null
o_height: null
o_width: null
datetaken: 2006-08-14 15:30:19
dateupload: 1156014715
tags: flowers nature insects projectspectrumcardinaldirections
license: 0
latitude: 48.189050
longitude: -122.704410
accuracy: 14
views: 26
interestingness: 49 out of 79

photo: 217764994 fdb6416e98 89
owner: 97048049@N00
title: Asters
originalsecret: fdb6416e98
originalformat: jpg
o_height: 1200
o_width: 1600
datetaken: 2006-08-17 09:39:51
dateupload: 1155832791
tags: flowers nature montana aster
license: 3
latitude: 45.114359
longitude: -109.299255
accuracy: 16
views: 57
interestingness: 50 out of 79

photo: 50991739 c1098c3dda 32
owner: 74337311@N00
title: gold n delicious
originalsecret: c1098c3dda
originalformat: jpg
o_height: null
o_width: null
datetaken: 2005-10-09 10:25:48
dateupload: 1128905204
tags: orchard apple aster doorcounty wisconsin fall cold nice
license: 0
latitude: 45.154442
longitude: -87.209472
accuracy: 9
views: 118
interestingness: 51 out of 79

photo: 50991741 35164b286d 25
owner: 74337311@N00
title: apple picking
originalsecret: 35164b286d
originalformat: jpg
o_height: null
o_width: null
datetaken: 2005-10-09 10:32:12
dateupload: 1128905204
tags: orchard apple aster doorcounty wisconsin fall cold nice
license: 0
latitude: 45.154442
longitude: -87.209472
accuracy: 9
views: 49
interestingness: 52 out of 79

photo: 50991740 150fc2e5fd 28
owner: 74337311@N00
title: fruit
originalsecret: 150fc2e5fd
originalformat: jpg
o_height: null
o_width: null
datetaken: 2005-10-09 10:31:41
dateupload: 1128905204
tags: orchard apple aster doorcounty wisconsin fall cold nice
license: 0
latitude: 45.154442
longitude: -87.209472
accuracy: 9
views: 53
interestingness: 53 out of 79

photo: 217762716 443f71c5ee 65
owner: 97048049@N00
title: Purple Flowers
originalsecret: 443f71c5ee
originalformat: jpg
o_height: 1200
o_width: 1600
datetaken: 2006-08-17 09:36:02
dateupload: 1155832562
tags: flowers nature montana aster
license: 3
latitude: 45.043167
longitude: -109.407203
accuracy: 16
views: 80
interestingness: 54 out of 79

photo: 219330301 ebf0e6a0f5 70
owner: 15528709@N00
title: Yellow aster
originalsecret: null
originalformat: null
o_height: null
o_width: null
datetaken: 2006-08-14 15:31:31
dateupload: 1156014718
tags: flowers nature projectspectrumcardinaldirections
license: 0
latitude: 48.189050
longitude: -122.704410
accuracy: 14
views: 45
interestingness: 55 out of 79

photo: 33062026 a0992eb257 22
owner: 71099952@N00
title: Ann at Yellow Aster Butte
originalsecret: a0992eb257
originalformat: jpg
o_height: 1200
o_width: 1600
datetaken: 2005-07-04 15:59:12
dateupload: 1123731884
tags: geotagged washington ann whatcomcounty yellowasterbutte geo:lat=48955405 geo:lon=121679585
license: 0
latitude: 48.955405
longitude: -121.679585
accuracy: 16
views: 69
interestingness: 56 out of 79

photo: 168984942 76c0e7adb1 55
owner: 89201858@N00
title: DSC12958
originalsecret: 76c0e7adb1
originalformat: jpg
o_height: 1920
o_width: 2560
datetaken: 2006-02-05 15:36:30
dateupload: 1150563866
tags: flowers plants animals butterflies australia mybest snowymountains
license: 3
latitude: -36.517079
longitude: 148.277688
accuracy: 16
views: 14
interestingness: 57 out of 79

photo: 46618675 bb188ec191 25
owner: 10546451@N00
title: CalicoAster.jpg
originalsecret: bb188ec191
originalformat: jpg
o_height: 1536
o_width: 2048
datetaken: 2005-09-25 21:28:18
dateupload: 1127698098
tags: flower garden pittsburghhome
license: 1
latitude: 40.449841
longitude: -79.855574
accuracy: 16
views: 28
interestingness: 58 out of 79

photo: 46614801 51c3903e07 26
owner: 10546451@N00
title: SmoothAster.jpg
originalsecret: 51c3903e07
originalformat: jpg
o_height: 2048
o_width: 1536
datetaken: 2005-09-25 21:16:16
dateupload: 1127697376
tags: flower garden pittsburghhome
license: 1
latitude: 40.449841
longitude: -79.855574
accuracy: 16
views: 9
interestingness: 59 out of 79

photo: 205346440 f3af18091b 76
owner: 72624613@N00
title: Aster Lake
originalsecret: f3af18091b
originalformat: jpg
o_height: 960
o_width: 1280
datetaken: 2006-07-28 12:12:17
dateupload: 1154570389
tags: backpacking alberta kananaskiscountry geo:lat=5057908 geo:lon=11521624 takenbybjcott
license: 0
latitude: 50.579080
longitude: -115.216240
accuracy: 16
views: 23
interestingness: 60 out of 79

photo: 205346356 86d7aecf14 75
owner: 72624613@N00
title: Aster Lake
originalsecret: 86d7aecf14
originalformat: jpg
o_height: 960
o_width: 1280
datetaken: 2006-07-28 09:07:22
dateupload: 1154570382
tags: backpacking alberta kananaskiscountry geo:lat=5058036 geo:lon=11520890 takenbybjcott
license: 0
latitude: 50.580360
longitude: -115.208900
accuracy: 16
views: 61
interestingness: 61 out of 79

photo: 219330372 2d5841a6cb 93
owner: 15528709@N00
title: Aster
originalsecret: null
originalformat: null
o_height: null
o_width: null
datetaken: 2006-08-14 15:34:34
dateupload: 1156014726
tags: flowers nature
license: 0
latitude: 48.189050
longitude: -122.704410
accuracy: 14
views: 12
interestingness: 62 out of 79

photo: 205345274 345efa760a 95
owner: 72624613@N00
title: Trail to Aster Lake
originalsecret: 345efa760a
originalformat: jpg
o_height: 1280
o_width: 960
datetaken: 2006-07-27 15:54:00
dateupload: 1154570293
tags: backpacking alberta kananaskiscountry geo:lat=5059085 geo:lon=11519102 takenbybjcott
license: 0
latitude: 50.590850
longitude: -115.191020
accuracy: 16
views: 57
interestingness: 63 out of 79

photo: 221974122 1fd97d379e 92
owner: 20135531@N00
title: Aster & Lyndsay
originalsecret: 1fd97d379e
originalformat: jpg
o_height: 1024
o_width: 1536
datetaken: 2006-08-01 00:00:00
dateupload: 1156252071
tags: big 2006 chill bigchill eastnor
license: 3
latitude: 52.048426
longitude: -2.384204
accuracy: 12
views: 12
interestingness: 64 out of 79

photo: 38055077 e632d9cb6b 33
owner: 84903939@N00
title: Aster
originalsecret: e632d9cb6b
originalformat: jpg
o_height: 2048
o_width: 3072
datetaken: 2005-08-25 00:42:57
dateupload: 1125274522
tags: 
license: 1
latitude: 45.789402
longitude: -89.044167
accuracy: 14
views: 31
interestingness: 65 out of 79

photo: 165032370 a016f97e34 76
owner: 15259736@N00
title: Save0019
originalsecret: null
originalformat: null
o_height: null
o_width: null
datetaken: 2006-05-28 00:00:00
dateupload: 1150052617
tags: film canon wildlife ugly slug
license: 0
latitude: 47.935293
longitude: -122.260150
accuracy: 16
views: 25
interestingness: 66 out of 79

photo: 38055160 352ab30ec3 29
owner: 84903939@N00
title: Panicled Aster?
originalsecret: 352ab30ec3
originalformat: jpg
o_height: 2048
o_width: 3072
datetaken: 2005-08-25 00:44:08
dateupload: 1125274547
tags: 
license: 1
latitude: 45.789402
longitude: -89.044167
accuracy: 14
views: 49
interestingness: 67 out of 79

photo: 678248729 7507489ad8 1018
owner: 9259651@N06
title: 050816 Yellow Aster Butte (2)
originalsecret: 2be1dc387b
originalformat: jpg
o_height: null
o_width: null
datetaken: 2005-08-16 08:04:55
dateupload: 1125776814
tags: 
license: 0
latitude: 48.879167
longitude: -121.327514
accuracy: 7
views: 0
interestingness: 68 out of 79

photo: 679104386 9e759d978c 1254
owner: 9259651@N06
title: 050815 Yellow Aster Butte (17)
originalsecret: 9fdf9bbd76
originalformat: jpg
o_height: null
o_width: null
datetaken: 2005-08-15 20:16:10
dateupload: 1125776809
tags: 
license: 0
latitude: 48.879167
longitude: -121.327514
accuracy: 7
views: 0
interestingness: 69 out of 79

photo: 679104094 9b3de03327 1012
owner: 9259651@N06
title: 050815 Yellow Aster Butte (13)
originalsecret: 61a5a4d6e1
originalformat: jpg
o_height: null
o_width: null
datetaken: 2005-08-15 19:32:03
dateupload: 1125776805
tags: 
license: 0
latitude: 48.879167
longitude: -121.327514
accuracy: 7
views: 0
interestingness: 70 out of 79

photo: 679103726 508b1849d0 1396
owner: 9259651@N06
title: 050815 Yellow Aster Butte (3) Marmot
originalsecret: 8f09bef00d
originalformat: jpg
o_height: null
o_width: null
datetaken: 2005-08-15 18:10:42
dateupload: 1125776800
tags: 
license: 0
latitude: 48.879167
longitude: -121.327514
accuracy: 7
views: 0
interestingness: 71 out of 79

photo: 679105510 5f306971b9 1219
owner: 9259651@N06
title: 050816 Yellow Aster Butte (5) campsite
originalsecret: 204563034e
originalformat: jpg
o_height: null
o_width: null
datetaken: 2007-07-01 06:38:57
dateupload: 1125776817
tags: 
license: 0
latitude: 48.879167
longitude: -121.327514
accuracy: 7
views: 0
interestingness: 72 out of 79

photo: 200106726 2e9db550fe 77
owner: 96131901@N00
title: july 27th 2006
originalsecret: 2e9db550fe
originalformat: jpg
o_height: null
o_width: null
datetaken: 2006-07-27 10:45:08
dateupload: 1154066762
tags: alaska
license: 0
latitude: 61.528260
longitude: -149.008941
accuracy: 11
views: 20
interestingness: 73 out of 79

photo: 155387410 4c101ba19f 77
owner: 46043067@N00
title: Aster
originalsecret: 4c101ba19f
originalformat: jpg
o_height: 1152
o_width: 864
datetaken: 2005-03-27 00:07:49
dateupload: 1148889410
tags: flowers phonecam
license: 0
latitude: 34.026752
longitude: -118.397384
accuracy: 15
views: 5
interestingness: 74 out of 79

photo: 196675625 5016c3677d 69
owner: 30488729@N00
title: Aster
originalsecret: null
originalformat: null
o_height: null
o_width: null
datetaken: 2006-07-23 18:54:41
dateupload: 1153706081
tags: cmountaintosoundphoto2006
license: 0
latitude: 46.788542
longitude: -121.743965
accuracy: 11
views: 14
interestingness: 75 out of 79

photo: 196662742 fdf7bbe268 76
owner: 30488729@N00
title: Aster
originalsecret: null
originalformat: null
o_height: null
o_width: null
datetaken: 2006-07-23 18:38:37
dateupload: 1153705117
tags: cmountaintosoundphoto2006
license: 0
latitude: 46.788542
longitude: -121.743965
accuracy: 11
views: 9
interestingness: 76 out of 79

photo: 167208735 cffd30ff27 24
owner: 12679078@N00
title: Front Yard - Late Summer 2004
originalsecret: cffd30ff27
originalformat: jpg
o_height: null
o_width: null
datetaken: 2006-06-14 12:02:25
dateupload: 1150311745
tags: mn brooklyncenter
license: 3
latitude: 45.084513
longitude: -93.331936
accuracy: 16
views: 19
interestingness: 77 out of 79

photo: 55066946 d350b49b32 29
owner: 18347350@N00
title: DSC02082.JPG
originalsecret: d350b49b32
originalformat: jpg
o_height: null
o_width: null
datetaken: 2005-09-22 14:02:28
dateupload: 1130041043
tags: natural flowers
license: 0
latitude: 38.103679
longitude: -90.357466
accuracy: 16
views: 83
interestingness: 78 out of 79

photo: 196662748 8fac2a0e35 57
owner: 30488729@N00
title: Sharing the Meadows
originalsecret: null
originalformat: null
o_height: null
o_width: null
datetaken: 2006-07-23 18:38:37
dateupload: 1153705117
tags: cmountaintosoundphoto2006
license: 0
latitude: 46.788542
longitude: -121.743965
accuracy: 11
views: 38
interestingness: 79 out of 79

photo: 227000749 2d23bf87fc 75
owner: 75798400@N00
title: Kvety Tatier - Astra spi?sk?
originalsecret: 2d23bf87fc
originalformat: jpg
o_height: null
o_width: null
datetaken: 2006-08-28 02:28:32
dateupload: 1156757312
tags: flowers mountains flower nature fleur fleurs fdsflickrtoys europa europe post stamp slovensko slovakia timbre priroda slaves tatry astra aster slovakrepublic slave europecentrale centraleurope slavs kvet slavic kvety hightatras vysoketatry slav slovaquie vysok?tatry tatramountains pr?roda eur?pa slovensk?republika martinbaran v?chodn?slovensko easternslovakia poststamp zn?mka znamka kvetytatier r?publiqueslovaque pre?ovsk?kraj astraspi?sk? tatrastamps stredn?eur?pa vychodneslovensko presovskykraj strednaeuropa mbslovakia mbeurope mbtatra mbtatras mbtatry mbslovensko mbmountains mbhory mbstamp
license: 0
latitude: 49.168236
longitude: 20.291233
accuracy: 12
views: 436
interestingness: 80 out of 79

photo: 225295934 2b80576bdc 26
owner: 44594154@N00
title: flowers on the Deck
originalsecret: 2b80576bdc
originalformat: jpg
o_height: null
o_width: null
datetaken: 2006-08-26 10:16:10
dateupload: 1156610133
tags: flowers minnesota august deck duluth asters aframe latesummer ttv throughtheviewfinder gayframe
license: 1
latitude: 46.803470
longitude: -92.091205
accuracy: 16
views: 56
interestingness: 81 out of 79

photo: 227607028 ed0c60ea94 98
owner: 19145980@N00
title: Common California-aster
originalsecret: ed0c60ea94
originalformat: jpg
o_height: 1200
o_width: 1600
datetaken: 2006-08-26 16:59:59
dateupload: 1156803797
tags: flowers flower wildflower agourahills
license: 0
latitude: 34.136744
longitude: -118.745384
accuracy: 13
views: 89
interestingness: 82 out of 79

photo: 228690618 63d1a6ad08 95
owner: 92643936@N00
title: Blue colored aster
originalsecret: 63d1a6ad08
originalformat: jpg
o_height: null
o_width: null
datetaken: 2006-08-29 19:17:18
dateupload: 1156895819
tags: flowers blue dof purple aster 82906
license: 0
latitude: 41.371414
longitude: -83.241165
accuracy: 16
views: 50
interestingness: 83 out of 79

photo: 227606823 c6026916c0 80
owner: 19145980@N00
title: Common California-aster
originalsecret: c6026916c0
originalformat: jpg
o_height: 1200
o_width: 1600
datetaken: 2006-08-26 16:58:41
dateupload: 1156803785
tags: flowers flower wildflower agourahills
license: 0
latitude: 34.136744
longitude: -118.745384
accuracy: 13
views: 27
interestingness: 84 out of 79


mintime: 1157076254.78 maxtime: 1185902179.06
numimgs: 228
total pages: 1
visiting only 1 pages ( up to 250 images)
photo: 274208231 91d544dd7a 118
owner: 82163304@N00
title: Asters after rain
originalsecret: null
originalformat: null
o_height: null
o_width: null
datetaken: 2006-10-20 00:17:52
dateupload: 1161299872
tags: flowers flower london nature water rain droplets drops croydon valerie aster october06 nikoncoolpixs10 pearceval 15challengeswinner parkhillpark beautifulworldchallenges
license: 0
latitude: 51.368585
longitude: -0.092074
accuracy: 16
views: 9606
interestingness: 1 out of 228

photo: 526089362 0baec010c1 1069
owner: 43732391@N00
title: Soft Pink Daisy (Cosmos bipinnatus)
originalsecret: 7e4b12b0fb
originalformat: jpg
o_height: 1200
o_width: 1600
datetaken: 2007-04-14 09:41:32
dateupload: 1180788034
tags: flowers flores primavera nature fleurs garden spring blossoms blumen fiori bungabunga maua bloemen blomster bulaklak hoa flors excellence pinkflowers ?i?ekler flori ????????? kv?tiny naturesfinest ????? geles lule vir?gok blom kukat cvije?e lilled blomme viragok ????? ????? ziedi ????? abigfave diamondclassphotographer flickrdiamond ????? kbetki kuety
license: 0
latitude: 45.400123
longitude: 11.278409
accuracy: 14
views: 1219
interestingness: 2 out of 228

photo: 859806213 ee484a0bf8 1401
owner: 8208738@N08
title: sweet aster
originalsecret: f53167ca3d
originalformat: jpg
o_height: 1491
o_width: 1870
datetaken: 2005-09-12 16:27:42
dateupload: 1184959978
tags: flowers color blossoms fiore bold lesfleurs
license: 0
latitude: 38.887947
longitude: -77.014170
accuracy: 16
views: 106
interestingness: 3 out of 228

photo: 488354455 f900bfb457 214
owner: 26915431@N00
title: Wild Tickseeds
originalsecret: null
originalformat: null
o_height: null
o_width: null
datetaken: 2006-05-21 18:45:30
dateupload: 1178550362
tags: usa ga georgia savannah aster tickseed coreopsislanceolata lanceleafcoreopsis jungpangwu oliverwu oliverjpwu explored olvwu lakemayerpark jungpang ?? ???
license: 0
latitude: 31.995283
longitude: -81.090393
accuracy: 16
views: 580
interestingness: 4 out of 228

photo: 252090397 71171fa4bc 108
owner: 78208664@N00
title: Aster
originalsecret: 71171fa4bc
originalformat: jpg
o_height: null
o_width: null
datetaken: 2006-09-25 07:02:23
dateupload: 1159160543
tags: blue white flower colour nature yellow closeup wonderful geotagged ilovenature fantastic sweden lovely1 gorgeous great lilac fav lovely aster escapetochristel geotaggedphotos instantfave lilacblue
license: 3
latitude: 55.441138
longitude: 13.052358
accuracy: 12
views: 1898
interestingness: 5 out of 228

photo: 289659020 069684dff5 117
owner: 24039224@N00
title: We've had some snow
originalsecret: 069684dff5
originalformat: jpg
o_height: null
o_width: null
datetaken: 2006-11-05 19:53:08
dateupload: 1162752788
tags: 15fav snow plant flower garden geotagged fantastic purple sweden gardening lovely1 flowerthursday firstsnow botany coolest asteraceae aster perennial iloveit 111v1f thebiggestgroup p1f1 geo:lat=58996195 bfv1 benaryscomposition geo:lon=17950974 cathycolorspurple
license: 0
latitude: 58.996195
longitude: 17.950974
accuracy: 16
views: 1139
interestingness: 6 out of 228

photo: 387695268 066a0b432c 153
owner: 87453322@N00
title: High Purple Asters at Oberlin, Ohio, USA
originalsecret: null
originalformat: null
o_height: null
o_width: null
datetaken: 2005-09-24 18:56:03
dateupload: 1171264663
tags: purple asters oberlin abigfave superbmasterpiece awesomeblossoms
license: 0
latitude: 41.292866
longitude: -82.222409
accuracy: 14
views: 609
interestingness: 7 out of 228

photo: 380606057 254e1dde7b 150
owner: 95142644@N00
title: Patchwork of muted colours
originalsecret: 254e1dde7b
originalformat: jpg
o_height: 1944
o_width: 2592
datetaken: 2006-11-13 04:25:34
dateupload: 1170686985
tags: flowers blue yellow garden australia melbourne botanicgarden asteraceae aster rockery bluefinger seneciomandraliscae kleiniamandraliscae homoranthusflavescens
license: 4
latitude: -37.817920
longitude: 144.973526
accuracy: 12
views: 898
interestingness: 8 out of 228

photo: 271222292 7ec102eccd 108
owner: 45783855@N00
title: Laramee Peaks
originalsecret: null
originalformat: null
o_height: null
o_width: null
datetaken: 2003-08-31 19:01:47
dateupload: 1161000762
tags: clouds wow lakes cascades montes
license: 0
latitude: 48.806863
longitude: -121.157226
accuracy: 4
views: 261
interestingness: 9 out of 228

photo: 237043189 4b6a4e8936 88
owner: 32815418@N00
title: Ethiopia - Gode - Princess Aster
originalsecret: null
originalformat: null
o_height: null
o_width: null
datetaken: 2006-09-07 12:32:19
dateupload: 1157657539
tags: africa black beauty swimmingpool click ethiopia ethnic aster clack clickclack gode champain westernafrica
license: 0
latitude: 6.086618
longitude: 43.025722
accuracy: 12
views: 1170
interestingness: 10 out of 228

photo: 243035608 760f5d789a 89
owner: 95659899@N00
title: Dahlia Identification Chart
originalsecret: null
originalformat: null
o_height: null
o_width: null
datetaken: 2006-09-01 15:17:53
dateupload: 1158229711
tags: dahlia flowers summer flower sign gardens project garden cornwall edenproject eden dahlias aug06 britchickphoto
license: 0
latitude: 50.360630
longitude: -4.750621
accuracy: 14
views: 1493
interestingness: 11 out of 228

photo: 472403472 4183187ca3 193
owner: 75798400@N00
title: Astra spi?sk? ? Aster amelloides Besser, Vysok? Tatry, Slovensko
originalsecret: c617cc1043
originalformat: jpg
o_height: null
o_width: null
datetaken: 2007-04-25 15:38:58
dateupload: 1177508338
tags: flowers flower fleur fleurs geotagged europe slovensko slovakia europeanunion tatry astra slovakrepublic tatras tatra centraleurope kvet kvety slovaquie vysok?tatry tatramountains unioneuropeenne unioneurop?enne slovensk?republika slovenskarepublika martinbaran easternslovakia kvetytatier r?publiqueslovaque astraspi?sk? eur?pska?nia europskaunia republiqueslovaque mbslovakia mbtatra mbtatras mbtatry vysoketratry astraspisska asteramelloidesbesser geo:lat=49168517 geo:lon=20290718
license: 0
latitude: 49.168517
longitude: 20.290718
accuracy: 16
views: 730
interestingness: 12 out of 228

photo: 958266271 7886b5123e 1172
owner: 83413148@N00
title: summits
originalsecret: 2258c18c82
originalformat: jpg
o_height: 2448
o_width: 3264
datetaken: 2007-07-28 15:46:49
dateupload: 1185859082
tags: mountains landscape washington hiking nationalforest wa mtlarrabee northcascades borderpeaks yellowasterbutte americanborderpeak canadianborderpeak mountbakersnoqualmienationalforest mtbakersnoqualmienationalforest mountlarrabee trail6861 yellowasterbuttetrail6861 yellowasterbuttetrail mountbakerwilderness
license: 3
latitude: 48.950577
longitude: -121.681298
accuracy: 16
views: 490
interestingness: 13 out of 228

photo: 733466727 996dd1c592 1251
owner: 9406058@N07
title: Purple Aster
originalsecret: 1316d74e6e
originalformat: jpg
o_height: 1412
o_width: 1101
datetaken: 2007-07-04 22:34:10
dateupload: 1183696097
tags: night fuji fiesta fireworks 4th july wv nighttime technorati fete f?te fourth fairmont feu s700 2007 cohetes fairmontwv beautifulcapture abigfave s5700 ishkolorkraft feuerwerken lshkolorkraft shuttersparks
license: 1
latitude: 39.482886
longitude: -80.137807
accuracy: 16
views: 285
interestingness: 14 out of 228

photo: 271277799 5d7ab55af7 99
owner: 70136696@N00
title: some of the last asters
originalsecret: null
originalformat: null
o_height: null
o_width: null
datetaken: 2006-10-15 12:53:35
dateupload: 1161006395
tags: flowers flower home fleur minnesota fleurs petals purple flor minneapolis blumen blume fiore aster flors p?rpura purper pourpre minneapolisminnesota purpurrot mamluke fiores
license: 0
latitude: 44.917577
longitude: -93.284858
accuracy: 16
views: 124
interestingness: 15 out of 228

photo: 252217746 e1324d9f34 101
owner: 48915783@N00
title: Like a Daisy
originalsecret: e1324d9f34
originalformat: jpg
o_height: 1600
o_width: 1230
datetaken: 2006-09-23 22:25:11
dateupload: 1159174755
tags: nature closeup ilovenature weed wildflower aster mrgreenjeans gaylon gaylonkeeling
license: 1
latitude: 30.648508
longitude: -90.995281
accuracy: 16
views: 205
interestingness: 16 out of 228

photo: 306680536 5f29eb5ded 100
owner: 12931455@N00
title: Aster, New England
originalsecret: null
originalformat: null
o_height: null
o_width: null
datetaken: 2006-11-26 11:52:18
dateupload: 1164559938
tags: autumn light usa flower color fall nature yellow canon geotagged day purple pennsylvania vivid fourseasons aster 4seasons murrysville canong2 javadoug douglasbauman
license: 0
latitude: 40.430092
longitude: -79.643497
accuracy: 13
views: 222
interestingness: 17 out of 228

photo: 280701203 c4f44fe523 101
owner: 17372221@N00
title: Asters
originalsecret: null
originalformat: null
o_height: null
o_width: null
datetaken: 2005-09-20 18:16:55
dateupload: 1161969415
tags: flowers green nature gardens wisley rhs maxineandmel
license: 0
latitude: 51.318013
longitude: -0.482969
accuracy: 15
views: 244
interestingness: 18 out of 228

photo: 756578017 9aa450baf8 1346
owner: 51035614490@N01
title: summer defined
originalsecret: aee3a0a377
originalformat: jpg
o_height: 2000
o_width: 3008
datetaken: 2007-07-06 20:07:31
dateupload: 1183936694
tags: summer lake flower grass minnesota d50 evening weeds july minneapolis sunny clear aster lakeharriet
license: 2
latitude: 44.925128
longitude: -93.296638
accuracy: 15
views: 181
interestingness: 19 out of 228

photo: 303562244 726023b26b 105
owner: 12931455@N00
title: Aster, New England and Goldenrod
originalsecret: null
originalformat: null
o_height: null
o_width: null
datetaken: 2005-09-01 00:00:00
dateupload: 1164210122
tags: autumn light usa flower color fall nature canon geotagged day pennsylvania goldenrod vivid fourseasons aster 4seasons murrysville canong2 javadoug douglasbauman
license: 0
latitude: 40.430092
longitude: -79.643497
accuracy: 13
views: 173
interestingness: 20 out of 228

photo: 726398419 bdb742e34d 1312
owner: 60243944@N00
title: Asters et edelweiss
originalsecret: 8aedb8758b
originalformat: jpg
o_height: null
o_width: null
datetaken: 2007-07-03 10:51:26
dateupload: 1183643769
tags: edelweiss asters vanoise leontopodium
license: 0
latitude: 45.234706
longitude: 6.664237
accuracy: 12
views: 129
interestingness: 21 out of 228

photo: 238248134 69d9f1b4c3 97
owner: 47829263@N00
title: Sea Aster
originalsecret: 69d9f1b4c3
originalformat: jpg
o_height: 1589
o_width: 2119
datetaken: 2006-09-07 08:59:31
dateupload: 1157793554
tags: autumn nature landscape scotland highlands flora september seashore asteraceae inverness nh64
license: 0
latitude: 57.490230
longitude: -4.237976
accuracy: 12
views: 38
interestingness: 22 out of 228

photo: 659867114 96d7403e60 1346
owner: 81015660@N00
title: Asters, Provins Market, France
originalsecret: 9a542841c5
originalformat: jpg
o_height: 629
o_width: 942
datetaken: 1977-09-01 00:00:00
dateupload: 1183115071
tags: pink flowers france market mauve zuiko olympusom1 asters provins
license: 0
latitude: 48.559150
longitude: 3.298490
accuracy: 12
views: 573
interestingness: 23 out of 228

photo: 240900832 8de3f10479 85
owner: 74643231@N00
title: Slufterstrand
originalsecret: 8de3f10479
originalformat: jpg
o_height: null
o_width: null
datetaken: 2006-09-11 15:08:00
dateupload: 1158010149
tags: flowers plants nature netherlands strand landscape dunes natuur duinen industrie planten bloemen maasvlakte landschap slufter zuidholland voorne astertripolium zeeaster slufterstrand westvoorne zulteaster
license: 0
latitude: 51.912561
longitude: 4.050350
accuracy: 12
views: 320
interestingness: 24 out of 228

photo: 235482246 9596bf203d 98
owner: 18207873@N00
title: Foursome
originalsecret: 9596bf203d
originalformat: jpg
o_height: null
o_width: null
datetaken: 2006-09-02 10:47:36
dateupload: 1157505388
tags: park flower wisconsin four state bokeh laborday aster foursome intestate
license: 0
latitude: 45.391940
longitude: -92.665472
accuracy: 13
views: 845
interestingness: 25 out of 228

photo: 263588521 4500722e1f 94
owner: 56398280@N00
title: Monarchs on Asters
originalsecret: 4500722e1f
originalformat: jpg
o_height: null
o_width: null
datetaken: 2006-10-07 15:47:55
dateupload: 1160285422
tags: blue flower butterfly monarch aster
license: 3
latitude: 36.452718
longitude: -95.489226
accuracy: 15
views: 148
interestingness: 26 out of 228

photo: 250751821 77241c92c6 100
owner: 55228353@N00
title: Aster and Fly
originalsecret: 77241c92c6
originalformat: jpg
o_height: 750
o_width: 1000
datetaken: 2006-09-23 22:06:48
dateupload: 1159045608
tags: plants insect fly nationaltrust warwickshire aster diptera uptonhouse walwyn
license: 1
latitude: 52.109305
longitude: -1.458156
accuracy: 16
views: 391
interestingness: 27 out of 228

photo: 272248064 e4c2a8fa0d 101
owner: 20462444@N00
title: asters
originalsecret: e4c2a8fa0d
originalformat: jpg
o_height: 2048
o_width: 1536
datetaken: 2006-10-17 10:04:45
dateupload: 1161093885
tags: flowers newmexico purple albuquerque asters petroglyphnationalmonument machaeranthera
license: 5
latitude: 35.120347
longitude: -106.730761
accuracy: 14
views: 360
interestingness: 28 out of 228

photo: 262499305 b97c26a131 112
owner: 87838561@N00
title: aster
originalsecret: null
originalformat: null
o_height: null
o_width: null
datetaken: 2006-10-06 16:17:25
dateupload: 1160255001
tags: usa flower iso100 october vermont 2006 montgomery nikkor aster d80 105mmf28gvrmicro
license: 0
latitude: 44.901289
longitude: -72.638903
accuracy: 16
views: 92
interestingness: 29 out of 228

photo: 958278151 c735907a4b 1141
owner: 83413148@N00
title: Mount Larrabee
originalsecret: 3c4a03a1fe
originalformat: jpg
o_height: 2448
o_width: 3264
datetaken: 2007-07-28 15:52:48
dateupload: 1185859167
tags: mountain mountains landscape washington hiking heather meadow nationalforest wa mtlarrabee northcascades yellowasterbutte mountbakersnoqualmienationalforest mtbakersnoqualmienationalforest mountlarrabee trail6861 yellowasterbuttetrail6861 yellowasterbuttetrail mountbakerwilderness
license: 3
latitude: 48.950577
longitude: -121.681298
accuracy: 16
views: 253
interestingness: 30 out of 228

photo: 244137959 aff2b90f84 96
owner: 87838561@N00
title: bug on aster
originalsecret: null
originalformat: null
o_height: null
o_width: null
datetaken: 2006-09-15 12:25:37
dateupload: 1158438420
tags: usa flower bug iso100 vermont purple 2006 september montgomery nikkor aster 60mmf28dmicro d80
license: 0
latitude: 44.901289
longitude: -72.638903
accuracy: 16
views: 153
interestingness: 31 out of 228

photo: 488302086 75cfe5695f 192
owner: 26915431@N00
title: Smoking Tickseeds
originalsecret: null
originalformat: null
o_height: null
o_width: null
datetaken: 2006-05-20 20:06:42
dateupload: 1178549411
tags: sunset usa ga georgia dusk savannah aster tickseed coreopsislanceolata lanceleafcoreopsis jungpangwu oliverwu oliverjpwu olvwu lakemayerpark jungpang ?? ???
license: 0
latitude: 31.995283
longitude: -81.090393
accuracy: 16
views: 263
interestingness: 32 out of 228

photo: 257895018 2450382d7d 110
owner: 13495247@N00
title: Fall Flowers, Bosque
originalsecret: null
originalformat: null
o_height: null
o_width: null
datetaken: 2006-09-25 15:26:52
dateupload: 1159743398
tags: flowers fall albuquerque nikond50 sunflowers asters sandias nicholsphotos
license: 0
latitude: 35.086484
longitude: -106.385679
accuracy: 13
views: 156
interestingness: 33 out of 228

photo: 238248784 477ac2d3e3 81
owner: 47829263@N00
title: Sea Aster
originalsecret: 477ac2d3e3
originalformat: jpg
o_height: 1456
o_width: 1942
datetaken: 2006-09-07 09:00:02
dateupload: 1157793669
tags: autumn nature landscape scotland highlands flora september seashore inverness nh64
license: 0
latitude: 57.490230
longitude: -4.237976
accuracy: 12
views: 65
interestingness: 34 out of 228

photo: 954202206 014cb7b974 1142
owner: 83413148@N00
title: yellow aster butte trail
originalsecret: 71c67789d6
originalformat: jpg
o_height: 2448
o_width: 3264
datetaken: 2007-07-28 15:14:28
dateupload: 1185820046
tags: mountain mountains landscape washington hiking nationalforest wa northcascades mountbakersnoqualmienationalforest mtbakersnoqualmienationalforest trail6861 yellowasterbuttetrail6861 yellowasterbuttetrail mountbakerwilderness
license: 3
latitude: 48.949897
longitude: -121.678004
accuracy: 16
views: 118
interestingness: 35 out of 228

photo: 959112396 0bbdf6028e 1403
owner: 83413148@N00
title: 
originalsecret: 162a4aca4b
originalformat: jpg
o_height: 2448
o_width: 3264
datetaken: 2007-07-28 15:46:04
dateupload: 1185859038
tags: mountains landscape washington hiking nationalforest wa northcascades yellowasterbutte winchestermountain mountbakersnoqualmienationalforest mtbakersnoqualmienationalforest trail6861 yellowasterbuttetrail6861 yellowasterbuttetrail mountbakerwilderness
license: 3
latitude: 48.949788
longitude: -121.682928
accuracy: 16
views: 155
interestingness: 36 out of 228

photo: 958253611 8ab95da7ff 1325
owner: 83413148@N00
title: 
originalsecret: a42784702e
originalformat: jpg
o_height: 3264
o_width: 2448
datetaken: 2007-07-28 15:43:34
dateupload: 1185858995
tags: flowers snow mountains flower landscape washington hiking nationalforest wa northcascades borderpeaks yellowasterbutte americanborderpeak canadianborderpeak mountbakersnoqualmienationalforest mtbakersnoqualmienationalforest trail6861 yellowasterbuttetrail6861 yellowasterbuttetrail mountbakerwilderness
license: 3
latitude: 48.949788
longitude: -121.683722
accuracy: 16
views: 305
interestingness: 37 out of 228

photo: 656613660 4752608707 1307
owner: 67944997@N00
title: Pink!
originalsecret: f14eb8ee8d
originalformat: jpg
o_height: null
o_width: null
datetaken: 2006-06-28 20:13:15
dateupload: 1183090788
tags: pink critter sidewalk grasshopper aster chattaroy
license: 0
latitude: 47.903433
longitude: -117.362126
accuracy: 16
views: 109
interestingness: 38 out of 228

photo: 258290658 e4783a7584 113
owner: 19145980@N00
title: California Aster
originalsecret: e4783a7584
originalformat: jpg
o_height: 1200
o_width: 1600
datetaken: 2006-10-01 16:22:20
dateupload: 1159769614
tags: california flowers flower wildflower langranch thousadoaks
license: 0
latitude: 34.220532
longitude: -118.808383
accuracy: 12
views: 94
interestingness: 39 out of 228

photo: 782680375 34aa32b6f2 1299
owner: 9053334@N06
title: sticky aster
originalsecret: null
originalformat: null
o_height: null
o_width: null
datetaken: 2007-07-02 16:39:15
dateupload: 1184217573
tags: california flower nature yellow circle coast humboldt bud norcal asteraceae humboldtcounty lostcoast courtnayjaniak
license: 0
latitude: 40.407614
longitude: -124.394073
accuracy: 12
views: 101
interestingness: 40 out of 228

photo: 959070974 38398df070 1197
owner: 83413148@N00
title: border peaks
originalsecret: 8144c5e6c3
originalformat: jpg
o_height: 2448
o_width: 3264
datetaken: 2007-07-28 15:30:31
dateupload: 1185858735
tags: mountains landscape washington hiking nationalforest wa northcascades borderpeaks yellowasterbutte americanborderpeak canadianborderpeak mountbakersnoqualmienationalforest mtbakersnoqualmienationalforest trail6861 yellowasterbuttetrail6861 yellowasterbuttetrail mountbakerwilderness
license: 3
latitude: 48.949615
longitude: -121.686791
accuracy: 16
views: 281
interestingness: 41 out of 228

photo: 958227177 416848cfd2 1402
owner: 83413148@N00
title: 
originalsecret: f40aeca9fe
originalformat: jpg
o_height: 2448
o_width: 3264
datetaken: 2007-07-28 15:35:43
dateupload: 1185858802
tags: mountains landscape washington hiking heather meadow nationalforest wa mtlarrabee northcascades borderpeaks yellowasterbutte mountbakersnoqualmienationalforest mtbakersnoqualmienationalforest mountlarrabee trail6861 yellowasterbuttetrail6861 yellowasterbuttetrail mountbakerwilderness
license: 3
latitude: 48.949495
longitude: -121.685407
accuracy: 16
views: 218
interestingness: 42 out of 228

photo: 726398497 2422e8bcc2 1366
owner: 60243944@N00
title: Pelouse
originalsecret: 08de3cf7f2
originalformat: jpg
o_height: null
o_width: null
datetaken: 2007-07-03 11:03:23
dateupload: 1183643770
tags: asters vanoise
license: 0
latitude: 45.231140
longitude: 6.668357
accuracy: 12
views: 78
interestingness: 43 out of 228

photo: 271703930 b3cf4ccc3b 117
owner: 89796683@N00
title: Kirchenfenster
originalsecret: null
originalformat: null
o_height: null
o_width: null
datetaken: 2006-09-19 15:10:05
dateupload: 1161037319
tags: flower church germany th?ringen kirche flowerpot blume aster blumentopf shk unterbodnitz saaleholzlandkreis
license: 0
latitude: 50.822990
longitude: 11.648597
accuracy: 13
views: 52
interestingness: 44 out of 228

photo: 760522826 b3e378c7c3 1346
owner: 7351889@N08
title: Astrospartus  StellaGorgona
originalsecret: 6756713401
originalformat: jpg
o_height: null
o_width: null
datetaken: 2007-07-08 11:37:37
dateupload: 1183973248
tags: sea fruit seaside mediterranean mediterraneo mare underwater tuscany toscana immersion secca immersione
license: 1
latitude: 42.582063
longitude: 10.879747
accuracy: 16
views: 260
interestingness: 45 out of 228

photo: 314760040 9ecedc140f 111
owner: 12223469@N00
title: Ochlodes sylvanoides and Aster Curtus
originalsecret: null
originalformat: null
o_height: null
o_width: null
datetaken: 2006-12-05 01:05:42
dateupload: 1165309542
tags: flower nature butterfly tim ennis wildflower aster ochlodes sylvanoides curtus timennis
license: 0
latitude: 48.808446
longitude: -123.630952
accuracy: 12
views: 442
interestingness: 46 out of 228

photo: 954200830 d16893384a 1417
owner: 83413148@N00
title: shuksan
originalsecret: d9e7e0107e
originalformat: jpg
o_height: 2448
o_width: 3264
datetaken: 2007-07-28 15:14:14
dateupload: 1185820036
tags: mountain snow mountains washington hiking nationalforest wa northcascades shuksan mtshuksan mountshuksan mountbakersnoqualmienationalforest mtbakersnoqualmienationalforest trail6861 yellowasterbuttetrail6861 yellowasterbuttetrail mountbakerwilderness
license: 3
latitude: 48.950077
longitude: -121.677896
accuracy: 16
views: 161
interestingness: 47 out of 228

photo: 959124442 85a581e350 1047
owner: 83413148@N00
title: Winchester Mountain
originalsecret: 820c2685e4
originalformat: jpg
o_height: 2448
o_width: 3264
datetaken: 2007-07-28 15:49:40
dateupload: 1185859123
tags: mountains landscape washington hiking nationalforest wa northcascades yellowasterbutte winchestermountain mountbakersnoqualmienationalforest mtbakersnoqualmienationalforest trail6861 yellowasterbuttetrail6861 yellowasterbuttetrail mountbakerwilderness
license: 3
latitude: 48.950577
longitude: -121.681298
accuracy: 16
views: 172
interestingness: 48 out of 228

photo: 238899549 ba48c7afbf 90
owner: 63447236@N00
title: aster
originalsecret: null
originalformat: null
o_height: null
o_width: null
datetaken: 2006-09-07 15:36:52
dateupload: 1157856974
tags: flowers plants plant toronto flower garden gardening bloom blooming eastyork
license: 0
latitude: 43.689721
longitude: -79.333562
accuracy: 13
views: 57
interestingness: 49 out of 228

photo: 238900036 60940b72d3 93
owner: 63447236@N00
title: asters
originalsecret: null
originalformat: null
o_height: null
o_width: null
datetaken: 2006-09-07 15:37:23
dateupload: 1157857024
tags: flowers plants plant toronto flower garden gardening bloom blooming eastyork
license: 0
latitude: 43.689721
longitude: -79.333562
accuracy: 13
views: 16
interestingness: 50 out of 228

photo: 244138223 6cb8288853 84
owner: 87838561@N00
title: bug on aster
originalsecret: null
originalformat: null
o_height: null
o_width: null
datetaken: 2006-09-15 12:26:11
dateupload: 1158438480
tags: usa flower iso100 vermont purple 2006 september montgomery nikkor aster 60mmf28dmicro d80
license: 0
latitude: 44.901289
longitude: -72.638903
accuracy: 16
views: 95
interestingness: 51 out of 228

photo: 517185725 75e5cf6463 222
owner: 30005552@N00
title: Fleabane
originalsecret: null
originalformat: null
o_height: null
o_width: null
datetaken: 2007-05-27 09:02:25
dateupload: 1180321724
tags: park county ohio color garden watercolor geotagged aster lorain fleabane schoepfle geotaggedohio
license: 0
latitude: 41.330033
longitude: -82.350425
accuracy: 12
views: 126
interestingness: 52 out of 228

photo: 947127701 da37917904 1432
owner: 83413148@N00
title: shuksan
originalsecret: ffe958fe2b
originalformat: jpg
o_height: 3264
o_width: 2448
datetaken: 2007-07-28 14:53:50
dateupload: 1185773664
tags: mountain mountains landscape washington hiking nationalforest wa northcascades mtshuksan mountshuksan mountbakersnoqualmienationalforest mtbakersnoqualmienationalforest trail6861 yellowasterbuttetrail6861 yellowasterbuttetrail mountbakerwilderness
license: 3
latitude: 48.951658
longitude: -121.673508
accuracy: 16
views: 163
interestingness: 53 out of 228

photo: 259847726 ea36b02a0c 105
owner: 43453795@N00
title: An Autumn Rainbow All Around
originalsecret: 4d687c2721
originalformat: jpg
o_height: 958
o_width: 640
datetaken: 2006-09-29 19:41:32
dateupload: 1159890391
tags: horse gold rainbow september companion mn rowdy picnik roygbiv palomino sumacs crowhassanparkinthreeriversparkdistrict hanovermn
license: 6
latitude: 45.180955
longitude: -93.633964
accuracy: 15
views: 341
interestingness: 54 out of 228

photo: 309213301 acd8bab756 117
owner: 41767647@N00
title: Dean & Aster
originalsecret: null
originalformat: null
o_height: null
o_width: null
datetaken: 2006-11-28 20:01:54
dateupload: 1164774843
tags: cinema brasil riodejaneiro botafogo picnik jamesdean luzesdacidade priscillaguerra fredaster espa?ounibando
license: 0
latitude: -22.950944
longitude: -43.182878
accuracy: 16
views: 187
interestingness: 55 out of 228

photo: 947087848 24738af20a 1122
owner: 83413148@N00
title: yellow aster butte
originalsecret: f95a702a3d
originalformat: jpg
o_height: 3264
o_width: 2448
datetaken: 2007-07-28 14:22:54
dateupload: 1185767584
tags: washington hiking nationalforest wa northcascades yellowasterbutte mountbakersnoqualmienationalforest mtbakersnoqualmienationalforest tomyhoilaketrail686 trail686 tomyhoilaketrail
license: 3
latitude: 48.945986
longitude: -121.671845
accuracy: 16
views: 171
interestingness: 56 out of 228

photo: 303562268 ff73274c6e 111
owner: 12931455@N00
title: Aster, New England and Goldenrod
originalsecret: null
originalformat: null
o_height: null
o_width: null
datetaken: 2005-09-01 00:00:00
dateupload: 1164210124
tags: autumn light usa flower color fall nature canon geotagged day pennsylvania goldenrod vivid fourseasons aster 4seasons murrysville canong2 javadoug douglasbauman
license: 0
latitude: 40.461184
longitude: -79.662036
accuracy: 13
views: 129
interestingness: 57 out of 228

photo: 953344073 f12bd53960 1421
owner: 83413148@N00
title: 
originalsecret: 5732949271
originalformat: jpg
o_height: 2448
o_width: 3264
datetaken: 2007-07-28 15:00:50
dateupload: 1185820024
tags: mountain mountains landscape washington hiking nationalforest wa northcascades mountbakersnoqualmienationalforest mtbakersnoqualmienationalforest trail6861 yellowasterbuttetrail6861 yellowasterbuttetrail mountbakerwilderness
license: 3
latitude: 48.950077
longitude: -121.677896
accuracy: 16
views: 77
interestingness: 58 out of 228

photo: 958206097 9c64286fe2 1439
owner: 83413148@N00
title: looking towards Welcome Pass
originalsecret: 5e019c4493
originalformat: jpg
o_height: 3264
o_width: 2448
datetaken: 2007-07-28 15:28:53
dateupload: 1185858640
tags: mountains landscape washington hiking nationalforest wa tarn northcascades tarns mountbakersnoqualmienationalforest mtbakersnoqualmienationalforest trail6861 yellowasterbuttetrail6861 yellowasterbuttetrail mountbakerwilderness
license: 3
latitude: 48.949615
longitude: -121.686791
accuracy: 16
views: 144
interestingness: 59 out of 228

photo: 954198146 70c01f8284 1323
owner: 83413148@N00
title: 
originalsecret: 6bcb2c248f
originalformat: jpg
o_height: 3264
o_width: 2448
datetaken: 2007-07-28 15:00:42
dateupload: 1185820017
tags: mountain snow mountains landscape waterfall washington hiking nationalforest wa northcascades mountbakersnoqualmienationalforest mtbakersnoqualmienationalforest trail6861 yellowasterbuttetrail6861 yellowasterbuttetrail mountbakerwilderness
license: 3
latitude: 48.950284
longitude: -121.677446
accuracy: 16
views: 80
interestingness: 60 out of 228

photo: 258363605 0d3f762354 95
owner: 71581861@N00
title: Aster novi-belgii
originalsecret: 0d3f762354
originalformat: jpg
o_height: null
o_width: null
datetaken: 2006-09-28 15:42:34
dateupload: 1159776644
tags: park test canada flower colour green nature vancouver garden bc britishcolumbia centralpark burnaby horticulture
license: 2
latitude: 49.242794
longitude: -123.021533
accuracy: 16
views: 169
interestingness: 61 out of 228

photo: 364023842 3b662ba1e9 167
owner: 66386164@N00
title: Bushy aster {Symphyotrichum dumosum}
originalsecret: null
originalformat: null
o_height: null
o_width: null
datetaken: 2006-09-24 11:06:39
dateupload: 1169344385
tags: ma purple newengland wildflowers wildflower asteraceae manypetals wfgna wrentham symphyotrichum bushyaster symphyotrichumdumosum
license: 0
latitude: 42.053299
longitude: -71.327029
accuracy: 16
views: 206
interestingness: 62 out of 228

photo: 947980954 d713bbbe27 1126
owner: 83413148@N00
title: yellow aster butte
originalsecret: 5a7402f3ff
originalformat: jpg
o_height: 3264
o_width: 2448
datetaken: 2007-07-28 14:58:52
dateupload: 1185773707
tags: mountain mountains washington hiking path nationalforest trail wa snowfield northcascades yellowasterbutte mountbakersnoqualmienationalforest mtbakersnoqualmienationalforest trail6861 yellowasterbuttetrail6861 yellowasterbuttetrail mountbakerwilderness
license: 3
latitude: 48.950556
longitude: -121.676630
accuracy: 16
views: 115
interestingness: 63 out of 228

photo: 375883126 48c3dc4cc6 187
owner: 59398563@N00
title: Wet flower
originalsecret: null
originalformat: null
o_height: null
o_width: null
datetaken: 2006-10-01 13:31:13
dateupload: 1159736953
tags: flowers wet rain colours lilac asternovibelgii newyorkaster h?staster
license: 0
latitude: 60.443852
longitude: 17.213773
accuracy: 16
views: 347
interestingness: 64 out of 228

photo: 691186002 0dd4601d7f 1395
owner: 90648023@N00
title: some sort of aster
originalsecret: null
originalformat: null
o_height: null
o_width: null
datetaken: 2007-07-01 08:52:01
dateupload: 1183351026
tags: oregon hiking hike columbiariver wildflowers wildflower columbiarivergorge eaglecreek eaglecreektrail erigeron
license: 0
latitude: 45.630125
longitude: -121.938114
accuracy: 12
views: 60
interestingness: 65 out of 228

photo: 953348781 8508990f86 1023
owner: 83413148@N00
title: north cascades
originalsecret: 7d809ac8e7
originalformat: jpg
o_height: 2448
o_width: 3264
datetaken: 2007-07-28 15:20:32
dateupload: 1185820058
tags: mountain snow mountains landscape washington hiking nationalforest wa northcascades mountbakersnoqualmienationalforest mtbakersnoqualmienationalforest trail6861 yellowasterbuttetrail6861 yellowasterbuttetrail mountbakerwilderness
license: 3
latitude: 48.949157
longitude: -121.678186
accuracy: 16
views: 106
interestingness: 66 out of 228

photo: 959064514 63022f03c0 1337
owner: 83413148@N00
title: view of Tomyhoi Peak
originalsecret: 0d6cc5b001
originalformat: jpg
o_height: 3264
o_width: 2448
datetaken: 2007-07-28 15:30:17
dateupload: 1185858687
tags: mountains landscape washington hiking nationalforest wa tarn northcascades tarns tomyhoipeak mountbakersnoqualmienationalforest mtbakersnoqualmienationalforest trail6861 yellowasterbuttetrail6861 yellowasterbuttetrail mountbakerwilderness
license: 3
latitude: 48.949615
longitude: -121.686791
accuracy: 16
views: 118
interestingness: 67 out of 228

photo: 958234015 da30a3bd9b 1113
owner: 83413148@N00
title: Mt. Shuksan
originalsecret: 6c49036feb
originalformat: jpg
o_height: 2448
o_width: 3264
datetaken: 2007-07-28 15:36:28
dateupload: 1185858856
tags: mountains landscape washington hiking meadow nationalforest wa northcascades mtshuksan mountshuksan mountbakersnoqualmienationalforest mtbakersnoqualmienationalforest trail6861 yellowasterbuttetrail6861 yellowasterbuttetrail mountbakerwilderness
license: 3
latitude: 48.949555
longitude: -121.684913
accuracy: 16
views: 172
interestingness: 68 out of 228

photo: 539916016 bb6b0f7f75 1130
owner: 12284993@N00
title: Aster
originalsecret: null
originalformat: null
o_height: null
o_width: null
datetaken: 2007-06-01 11:28:24
dateupload: 1181533326
tags: flower geotagged thailand southeastasia s?dostasien phuket ??? sudestasiatico ????? asiedusudest suresteasi?tico geo:tool=yuancc ??? ???????????????? ????? suesteasi?tico ??ngnam? timogsilangangasya asiatenggara habagatangsidlakangasya ?????????????????????? geo:lat=801068 geo:lon=98291588
license: 0
latitude: 8.010680
longitude: 98.291588
accuracy: 16
views: 104
interestingness: 69 out of 228

photo: 238976072 b78196e87c 83
owner: 24142031@N00
title: Aster?
originalsecret: b78196e87c
originalformat: jpg
o_height: null
o_width: null
datetaken: 2006-09-09 21:57:47
dateupload: 1157864267
tags: flower wildflower greatswampnwr
license: 0
latitude: 40.713313
longitude: -74.514330
accuracy: 16
views: 84
interestingness: 70 out of 228

photo: 894671411 db7cdf2616 1339
owner: 7938358@N07
title: Aster
originalsecret: b49ba50643
originalformat: jpg
o_height: null
o_width: null
datetaken: 2007-07-21 13:37:08
dateupload: 1185366788
tags: flowers plants garden petals
license: 0
latitude: 55.207149
longitude: -6.658573
accuracy: 15
views: 41
interestingness: 71 out of 228

photo: 351401155 f1e16aab5b 155
owner: 47382830@N00
title: Kalimeris pinnatifida var. hortensis (Woodland Loop Garden, OR - 9/9/2006)
originalsecret: f1e16aab5b
originalformat: jpg
o_height: null
o_width: null
datetaken: 2006-09-09 16:45:34
dateupload: 1168326266
tags: favorite flower nature oregon garden raw botanicals willamettevalley woodlandloop
license: 0
latitude: 45.354448
longitude: -123.111321
accuracy: 16
views: 125
interestingness: 72 out of 228

photo: 587985479 6297f9a4b2 1436
owner: 8141763@N04
title: Dahlia and Aster in the Walled Garden
originalsecret: 0c09360af7
originalformat: jpg
o_height: 1792
o_width: 2368
datetaken: 2006-09-10 17:17:14
dateupload: 1157940797
tags: dahlia flowers summer newyork longisland aster walledgarden goldcoast oldwestburygardens
license: 0
latitude: 40.775163
longitude: -73.596510
accuracy: 15
views: 82
interestingness: 73 out of 228

photo: 262498732 9e5ce641dd 88
owner: 87838561@N00
title: butterfly on aster
originalsecret: null
originalformat: null
o_height: null
o_width: null
datetaken: 2006-10-06 16:14:28
dateupload: 1160229780
tags: usa butterfly iso100 october vermont 2006 montgomery nikkor d80 105mmf28gvrmicro
license: 0
latitude: 44.901289
longitude: -72.638903
accuracy: 16
views: 63
interestingness: 74 out of 228

photo: 349220989 5ecd23e8e6 151
owner: 83293835@N00
title: 7801_773-6.jpg
originalsecret: null
originalformat: null
o_height: null
o_width: null
datetaken: 2003-10-25 00:00:01
dateupload: 1168193069
tags: terschelling aster noordvaarder tripolium astertripolium zulte
license: 0
latitude: 53.359951
longitude: 5.209429
accuracy: 14
views: 64
interestingness: 75 out of 228

photo: 246825913 fbfa83144d 80
owner: 74643231@N00
title: Slufterstrand
originalsecret: fbfa83144d
originalformat: jpg
o_height: null
o_width: null
datetaken: 2006-09-11 15:18:55
dateupload: 1158612587
tags: nature netherlands strand landscape dunes natuur duinen aster landschap slufter zuidholland salicornia voorne zeekraal tripolium zeeaster slufterstrand westvoorne zulteaster
license: 0
latitude: 51.912190
longitude: 4.051208
accuracy: 12
views: 194
interestingness: 76 out of 228

photo: 494021301 37bda3bd95 218
owner: 80845526@N00
title: Camo Beetle
originalsecret: 1ad5d4f72d
originalformat: jpg
o_height: null
o_width: null
datetaken: 2007-05-11 04:28:02
dateupload: 1178915356
tags: white flower yellow beetle camo petal aster coleoptera diguise
license: 3
latitude: 37.465367
longitude: -79.468381
accuracy: 16
views: 301
interestingness: 77 out of 228

photo: 245374967 e8eed4e7cd 88
owner: 87838561@N00
title: bee on aster
originalsecret: null
originalformat: null
o_height: null
o_width: null
datetaken: 2006-09-16 15:18:04
dateupload: 1158707700
tags: usa flower bug vermont purple 2006 september bee montgomery aster nikkon 60mmf28dmicro d80
license: 0
latitude: 44.901289
longitude: -72.638903
accuracy: 16
views: 79
interestingness: 78 out of 228

photo: 569472688 28f3d37c4f 1343
owner: 23079381@N00
title: asters - woolly eriophyllum
originalsecret: null
originalformat: null
o_height: null
o_width: null
datetaken: 2007-06-16 13:56:44
dateupload: 1182261446
tags: usa washington cloudy weekend windy diablo wilderness aster cwall northcascadesnationalpark learningcenter learningcentre northcascadesinstitute seattlelight diablodowntime sourdoughcreek woollyerophyllum diabloheaven
license: 0
latitude: 48.718941
longitude: -121.118946
accuracy: 12
views: 138
interestingness: 79 out of 228

photo: 653847686 347748bc38 1166
owner: 76798465@N00
title: 724 Trichordestra  lilacina - Aster Cutworm 10307
originalsecret: 3ee1005e85
originalformat: jpg
o_height: 751
o_width: 866
datetaken: 2007-06-28 08:25:56
dateupload: 1183071917
tags: june moth wa aster willapa cutworm pacificcounty lilacina trichordestra 10308
license: 1
latitude: 46.624139
longitude: -123.949191
accuracy: 14
views: 49
interestingness: 80 out of 228

photo: 526141505 f7a34579ed 1183
owner: 7357861@N03
title: Some prairie flowers, August 2006
originalsecret: e3b01e8ba5
originalformat: jpg
o_height: 1704
o_width: 2272
datetaken: 2006-08-20 15:17:16
dateupload: 1180785461
tags: minnesota forest chaos fb unknown milkweed asteraceae 3030 minnesotawoods nativeprairie nativelandscaping backyardprairie unknownaster
license: 2
latitude: 45.023917
longitude: -93.147153
accuracy: 12
views: 136
interestingness: 81 out of 228

photo: 262881624 2a37dd277a 118
owner: 99884310@N00
title: Neighbor's flower - Aster
originalsecret: 2a37dd277a
originalformat: jpg
o_height: null
o_width: null
datetaken: 2006-10-05 11:44:48
dateupload: 1160219388
tags: backyard aster 30d1005298
license: 3
latitude: 38.691325
longitude: -90.424969
accuracy: 16
views: 106
interestingness: 82 out of 228

photo: 521124288 0f2f79e850 249
owner: 47408741@N00
title: Aster macrophyllus - Large-leaved Aster
originalsecret: f6ff6028c6
originalformat: jpg
o_height: 800
o_width: 600
datetaken: 2007-05-27 13:59:35
dateupload: 1180508851
tags: plant geotagged geo:lat=474753333333333 geo:lon=910978333333333 cmw4
license: 0
latitude: 47.475333
longitude: -91.097833
accuracy: 16
views: 86
interestingness: 83 out of 228

photo: 875234609 53b6c880e8 1243
owner: 10009563@N08
title: [Asteraceae] Aster bellidiastrum (L.) Scop.
originalsecret: fdb2495179
originalformat: jpg
o_height: 600
o_width: 800
datetaken: 2007-07-23 05:30:01
dateupload: 1185193801
tags: france geotagged jardin asteraceae lautaret stationalpinejosephfourier geo:lat=45033259 geo:lon=6402969 rocaillealpesorientalesetcentralesdujardindulautaret
license: 0
latitude: 45.036094
longitude: 6.400351
accuracy: 15
views: 403
interestingness: 84 out of 228

photo: 709999246 207d42d3d9 1355
owner: 24579410@N00
title: Aster
originalsecret: 1b194c5b33
originalformat: jpg
o_height: 3072
o_width: 2304
datetaken: 2007-06-30 13:09:31
dateupload: 1183504253
tags: california longbeach lakewood losangelescounty outdooradventures lbna lakewoodcityparks sangabrielriverparkway
license: 0
latitude: 33.842261
longitude: -118.097319
accuracy: 14
views: 60
interestingness: 85 out of 228

photo: 521217203 e6ab486759 241
owner: 47408741@N00
title: Asarum canadense - Wild Ginger
originalsecret: d2c83c87ef
originalformat: jpg
o_height: 600
o_width: 800
datetaken: 2007-05-27 15:33:17
dateupload: 1180513874
tags: plant geotagged geo:lon=91088 geo:lat=474691666666667 cmw4
license: 0
latitude: 47.469166
longitude: -91.088000
accuracy: 16
views: 73
interestingness: 86 out of 228

photo: 256659916 6d8067d22b 122
owner: 67294085@N00
title: Chrysopsis mariana
originalsecret: 6d8067d22b
originalformat: jpg
o_height: null
o_width: null
datetaken: 2006-09-30 10:55:59
dateupload: 1159650043
tags: park plants plant freedom virginia native herbaceous jamescitycounty sep23
license: 0
latitude: 37.321390
longitude: -76.801477
accuracy: 16
views: 105
interestingness: 87 out of 228

photo: 709994514 45868b9493 1256
owner: 24579410@N00
title: Aster_1328
originalsecret: 6ff0054be3
originalformat: jpg
o_height: 3072
o_width: 2304
datetaken: 2007-06-30 13:09:09
dateupload: 1183504215
tags: california longbeach lakewood losangelescounty outdooradventures lbna lakewoodcityparks sangabrielriverparkway
license: 0
latitude: 33.842261
longitude: -118.097319
accuracy: 14
views: 35
interestingness: 88 out of 228

photo: 244962024 126131ad85 95
owner: 31715949@N00
title: Flowers
originalsecret: null
originalformat: null
o_height: null
o_width: null
datetaken: 2006-09-16 13:18:11
dateupload: 1158451937
tags: flower massachusetts asteraceae aster westernmass octobermountainstateforest
license: 0
latitude: 42.352018
longitude: -73.191046
accuracy: 16
views: 144
interestingness: 89 out of 228

photo: 751221626 95dab01e75 1318
owner: 24579410@N00
title: Malacothrix saxatilis
originalsecret: 5d9cf99d36
originalformat: jpg
o_height: 3072
o_width: 2304
datetaken: 2007-07-04 11:12:42
dateupload: 1183856181
tags: asteraceae palosverdes outdooradventures cliffaster malacothrixsaxatilis ranchopalosverdescityparks delcerropark
license: 0
latitude: 33.754673
longitude: -118.371334
accuracy: 13
views: 40
interestingness: 90 out of 228

photo: 233487941 fd1d7ca57f 80
owner: 92643936@N00
title: dragon asters
originalsecret: fd1d7ca57f
originalformat: jpg
o_height: null
o_width: null
datetaken: 2006-09-03 19:26:18
dateupload: 1157348010
tags: flower aster dragonasters
license: 0
latitude: 41.371414
longitude: -83.241165
accuracy: 16
views: 51
interestingness: 91 out of 228

photo: 256659929 32d7f2866e 89
owner: 67294085@N00
title: Chrysopsis mariana
originalsecret: 32d7f2866e
originalformat: jpg
o_height: null
o_width: null
datetaken: 2006-09-30 10:56:14
dateupload: 1159650043
tags: park plants plant freedom virginia native jamescitycounty sep23
license: 0
latitude: 37.321390
longitude: -76.801477
accuracy: 16
views: 172
interestingness: 92 out of 228

photo: 750372835 0ad7b61805 1104
owner: 24579410@N00
title: Cliff aster
originalsecret: 34ab882b63
originalformat: jpg
o_height: 3072
o_width: 2304
datetaken: 2007-07-04 11:12:46
dateupload: 1183856250
tags: asteraceae palosverdes outdooradventures cliffaster malacothrixsaxatilis ranchopalosverdescityparks delcerropark
license: 0
latitude: 33.754673
longitude: -118.371334
accuracy: 13
views: 71
interestingness: 93 out of 228

photo: 751210992 e1a8c81b44 1118
owner: 24579410@N00
title: Cliff aster
originalsecret: 4f327a7bf8
originalformat: jpg
o_height: 3072
o_width: 2304
datetaken: 2007-07-04 11:11:56
dateupload: 1183856056
tags: asteraceae palosverdes outdooradventures cliffaster malacothrixsaxatilis ranchopalosverdescityparks delcerropark
license: 0
latitude: 33.754673
longitude: -118.371334
accuracy: 13
views: 67
interestingness: 94 out of 228

photo: 751232426 15f8535fde 1172
owner: 24579410@N00
title: Cliff aster
originalsecret: f18f99998b
originalformat: jpg
o_height: 3072
o_width: 2304
datetaken: 2007-07-04 11:11:52
dateupload: 1183856319
tags: asteraceae palosverdes outdooradventures cliffaster malacothrixsaxatilis ranchopalosverdescityparks delcerropark
license: 0
latitude: 33.754673
longitude: -118.371334
accuracy: 13
views: 73
interestingness: 95 out of 228

photo: 269618922 7b11c81b93 112
owner: 46673143@N00
title: Purple Asters
originalsecret: 7b11c81b93
originalformat: jpg
o_height: null
o_width: null
datetaken: 2006-10-07 00:00:49
dateupload: 1160865030
tags: flower canon eos novascotia purple wolfville rebelxt geordie aster lounsbury acadiauniversity
license: 1
latitude: 45.086816
longitude: -64.367802
accuracy: 15
views: 73
interestingness: 96 out of 228

photo: 265941786 a34034e5b3 80
owner: 37663331@N00
title: Asters and Sumac
originalsecret: a34034e5b3
originalformat: jpg
o_height: 3504
o_width: 2336
datetaken: 2006-10-09 12:49:00
dateupload: 1160478862
tags: flowers autumn toronto ontario canada blackcreekpioneervillage
license: 5
latitude: 43.774013
longitude: -79.519383
accuracy: 16
views: 182
interestingness: 97 out of 228

photo: 402182487 f7398ad260 152
owner: 79842464@N00
title: Aster
originalsecret: f7398ad260
originalformat: jpg
o_height: 3888
o_width: 2592
datetaken: 2007-02-25 09:28:53
dateupload: 1172424533
tags: 50mm f14 ef 400d rebelxti canon400d
license: 0
latitude: 47.612318
longitude: -122.329046
accuracy: 16
views: 35
interestingness: 98 out of 228

photo: 288931744 6e45d04c01 102
owner: 90003404@N00
title: Asters
originalsecret: 6e45d04c01
originalformat: jpg
o_height: null
o_width: null
datetaken: 2006-11-04 06:33:29
dateupload: 1162686792
tags: november flowers blue autumn fall nature campus lexington kentucky arboritum universityofkentucky
license: 1
latitude: 38.014228
longitude: -84.505033
accuracy: 16
views: 118
interestingness: 99 out of 228

photo: 269698862 e051ec95af 88
owner: 91895591@N00
title: asters
originalsecret: e051ec95af
originalformat: jpg
o_height: null
o_width: null
datetaken: 2006-10-11 17:55:27
dateupload: 1160872393
tags: blue sky sun lake water clouds vegan peace bright kodak shore valley zen angela kneale okone
license: 0
latitude: 40.324102
longitude: -75.187339
accuracy: 13
views: 63
interestingness: 100 out of 228

photo: 319392874 7275d2127f 131
owner: 43743580@N00
title: Aster
originalsecret: null
originalformat: null
o_height: null
o_width: null
datetaken: 2005-08-21 02:30:02
dateupload: 1165825453
tags: plants asteraceae
license: 0
latitude: 36.615527
longitude: -121.684570
accuracy: 4
views: 80
interestingness: 101 out of 228

photo: 262499605 58e37b9803 117
owner: 87838561@N00
title: aster bud
originalsecret: null
originalformat: null
o_height: null
o_width: null
datetaken: 2006-10-06 16:17:43
dateupload: 1160255032
tags: usa iso100 october vermont 2006 montgomery nikkor aster d80 105mmf28gvrmicro
license: 0
latitude: 44.901289
longitude: -72.638903
accuracy: 16
views: 47
interestingness: 102 out of 228

photo: 269618871 1af31e31d4 83
owner: 46673143@N00
title: Purple Aster 2
originalsecret: 1af31e31d4
originalformat: jpg
o_height: null
o_width: null
datetaken: 2006-10-07 00:00:48
dateupload: 1160865025
tags: flower canon eos novascotia purple wolfville bee rebelxt geordie aster lounsbury acadiauniversity
license: 1
latitude: 45.086816
longitude: -64.367802
accuracy: 15
views: 69
interestingness: 103 out of 228

photo: 557823166 6343bf556f 1165
owner: 67294085@N00
title: Aster laevis
originalsecret: 502a498b8d
originalformat: jpg
o_height: null
o_width: null
datetaken: 2007-06-16 15:42:17
dateupload: 1182026703
tags: plant june virginia native herbaceous jun11
license: 0
latitude: 37.271961
longitude: -76.702820
accuracy: 16
views: 94
interestingness: 104 out of 228

photo: 557813282 71182db915 1131
owner: 67294085@N00
title: Aster laevis
originalsecret: da15e2c058
originalformat: jpg
o_height: null
o_width: null
datetaken: 2007-06-16 14:06:03
dateupload: 1182026413
tags: plant june virginia native herbaceous jun11
license: 0
latitude: 37.262816
longitude: -76.704815
accuracy: 16
views: 77
interestingness: 105 out of 228

photo: 402182483 4c908a82af 163
owner: 79842464@N00
title: Aster-3
originalsecret: 4c908a82af
originalformat: jpg
o_height: 3888
o_width: 2592
datetaken: 2007-02-25 09:28:52
dateupload: 1172424532
tags: 50mm f14 ef 400d rebelxti canon400d
license: 0
latitude: 47.612318
longitude: -122.329046
accuracy: 16
views: 36
interestingness: 106 out of 228

photo: 269618822 ce7978ff89 88
owner: 46673143@N00
title: Purple Aster 3
originalsecret: ce7978ff89
originalformat: jpg
o_height: null
o_width: null
datetaken: 2006-10-07 00:00:47
dateupload: 1160865021
tags: flower gardens canon botanical eos novascotia purple wolfville harriet irving rebelxt geordie aster lounsbury
license: 1
latitude: 45.086816
longitude: -64.367802
accuracy: 15
views: 41
interestingness: 107 out of 228

photo: 269618762 868a180b74 118
owner: 46673143@N00
title: Purple Aster 4
originalsecret: 868a180b74
originalformat: jpg
o_height: null
o_width: null
datetaken: 2006-10-07 00:00:46
dateupload: 1160865017
tags: flower gardens canon botanical eos novascotia purple wolfville harriet irving rebelxt geordie aster lounsbury
license: 1
latitude: 45.086816
longitude: -64.367802
accuracy: 15
views: 44
interestingness: 108 out of 228

photo: 362231551 c136318317 156
owner: 66386164@N00
title: Smooth aster {Symphyotrichum laeve}
originalsecret: null
originalformat: null
o_height: null
o_width: null
datetaken: 2006-09-24 11:32:35
dateupload: 1169182321
tags: fall 20d yellow ma purple newengland wildflowers wildflower asteraceae manypetals wfgna wrentham smoothaster symphyotrichum symphyotrichumlaeve
license: 0
latitude: 42.056693
longitude: -71.329540
accuracy: 16
views: 232
interestingness: 109 out of 228

photo: 269616946 8f810d716a 106
owner: 46673143@N00
title: Asters and Water 2
originalsecret: 8f810d716a
originalformat: jpg
o_height: null
o_width: null
datetaken: 2006-10-07 00:00:09
dateupload: 1160864868
tags: canada gardens canon botanical eos waterfall novascotia wolfville harriet irving rebelxt geordie aster lounsbury acadiauniversity
license: 1
latitude: 45.086816
longitude: -64.367802
accuracy: 15
views: 79
interestingness: 110 out of 228

photo: 269617002 29e631eba2 99
owner: 46673143@N00
title: Asters and Water 1
originalsecret: 29e631eba2
originalformat: jpg
o_height: null
o_width: null
datetaken: 2006-10-07 12:16:49
dateupload: 1160864872
tags: canada gardens canon botanical eos waterfall novascotia wolfville harriet irving rebelxt geordie aster lounsbury acadiauniversity
license: 1
latitude: 45.086816
longitude: -64.367802
accuracy: 15
views: 86
interestingness: 111 out of 228

photo: 364040524 c588e1b9f5 147
owner: 66386164@N00
title: White wood aster {Eurybia divaricata}
originalsecret: null
originalformat: null
o_height: null
o_width: null
datetaken: 2006-09-24 11:13:06
dateupload: 1169345611
tags: white fall 20d ma newengland wildflowers wildflower asteraceae manypetals wfgna wrentham whitewoodaster eurybiadivaricata eurybia ?weo
license: 0
latitude: 42.056040
longitude: -71.331084
accuracy: 16
views: 391
interestingness: 112 out of 228

photo: 402182500 339568d68f 174
owner: 79842464@N00
title: Aster's-Bday
originalsecret: 339568d68f
originalformat: jpg
o_height: 3888
o_width: 2592
datetaken: 2007-02-25 09:28:53
dateupload: 1172424533
tags: 50mm f14 ef 400d rebelxti canon400d
license: 0
latitude: 47.612318
longitude: -122.329046
accuracy: 16
views: 40
interestingness: 113 out of 228

photo: 235239321 308fa236bf 97
owner: 78973517@N00
title: Asteraceae - Eurybia radulina (formerly Aster radulinus) (rough-leaved aster) EW
originalsecret: 308fa236bf
originalformat: jpg
o_height: 2048
o_width: 1360
datetaken: 2003-07-19 09:50:19
dateupload: 1157486293
tags: ca edgewoodcountyparkandnaturalpreserveredwoodcity
license: 0
latitude: 37.463311
longitude: -122.283689
accuracy: 14
views: 61
interestingness: 114 out of 228

photo: 235239694 1437313c62 82
owner: 78973517@N00
title: Asteraceae - Eurybia radulina (formerly Aster radulinus) (rough-leaved aster) EW
originalsecret: 1437313c62
originalformat: jpg
o_height: 1360
o_width: 2048
datetaken: 2003-07-19 09:50:02
dateupload: 1157486321
tags: ca edgewoodcountyparkandnaturalpreserveredwoodcity
license: 0
latitude: 37.463311
longitude: -122.283689
accuracy: 14
views: 55
interestingness: 115 out of 228

photo: 330250623 b50f55d5be 137
owner: 60912786@N00
title: fall-aster-img_0046.jpg
originalsecret: b50f55d5be
originalformat: jpg
o_height: null
o_width: null
datetaken: 2006-10-25 15:40:41
dateupload: 1166813987
tags: aster naturetrail
license: 0
latitude: 37.173551
longitude: -80.411081
accuracy: 15
views: 18
interestingness: 116 out of 228

photo: 558072931 d95ffb0f19 1358
owner: 67294085@N00
title: Aster laevis
originalsecret: 7af683efb3
originalformat: jpg
o_height: null
o_width: null
datetaken: 2007-06-16 14:07:08
dateupload: 1182026417
tags: plant june virginia native jun11
license: 0
latitude: 37.262816
longitude: -76.704815
accuracy: 16
views: 58
interestingness: 117 out of 228

photo: 431762800 76ef3c0a7a 176
owner: 7463275@N07
title: Aster Subulatus
originalsecret: null
originalformat: null
o_height: null
o_width: null
datetaken: 2007-03-23 14:23:27
dateupload: 1174685007
tags: flowers conservation falls dolan chihuahuandesert
license: 0
latitude: 29.884262
longitude: -100.994825
accuracy: 14
views: 39
interestingness: 118 out of 228

photo: 316769430 6448908ee0 116
owner: 68353231@N00
title: Aster Plaza
originalsecret: null
originalformat: null
o_height: null
o_width: null
datetaken: 2006-12-06 19:54:12
dateupload: 1165539826
tags: autumn moon night river december hiroshima goinghome december6 ?florencenobukosmith
license: 0
latitude: 34.391187
longitude: 132.438726
accuracy: 12
views: 46
interestingness: 119 out of 228

photo: 359517077 c0e736c0c4 144
owner: 47184979@N00
title: 0169
originalsecret: c0e736c0c4
originalformat: jpg
o_height: 1728
o_width: 2304
datetaken: 2007-01-16 23:44:41
dateupload: 1168962281
tags: jay albert ldh aster jostar
license: 0
latitude: 25.025884
longitude: 121.445617
accuracy: 8
views: 76
interestingness: 120 out of 228

photo: 301472285 0b43542687 120
owner: 19145980@N00
title: California Aster
originalsecret: 0b43542687
originalformat: jpg
o_height: 1200
o_width: 1600
datetaken: 2006-11-19 15:05:49
dateupload: 1163987476
tags: flowers flower wildflower fallingstar
license: 0
latitude: 34.198279
longitude: -118.795895
accuracy: 13
views: 57
interestingness: 121 out of 228

photo: 523046994 9972102f0e 236
owner: 8592003@N02
title: Aster
originalsecret: b692fe6c65
originalformat: jpg
o_height: null
o_width: null
datetaken: 2006-09-17 02:58:41
dateupload: 1180609176
tags: plant flower nature environment aster
license: 0
latitude: 42.398298
longitude: -71.659698
accuracy: 13
views: 31
interestingness: 122 out of 228

photo: 357170805 823ebbd07d 162
owner: 69849945@N00
title: Picture2788.jpg
originalsecret: 823ebbd07d
originalformat: jpg
o_height: 324
o_width: 432
datetaken: 2006-11-03 00:00:12
dateupload: 1168799560
tags: shows britt cigarfactory mikesilverman esthersaster
license: 0
latitude: 27.959182
longitude: -82.485437
accuracy: 16
views: 40
interestingness: 123 out of 228

photo: 275594955 daafc41867 93
owner: 47713974@N00
title: Monarch Among Asters
originalsecret: daafc41867
originalformat: jpg
o_height: 632
o_width: 964
datetaken: 2006-10-04 17:27:53
dateupload: 1161465197
tags: flowers ma 2006 moo cropped cambridgema
license: 0
latitude: 42.395790
longitude: -71.139017
accuracy: 16
views: 20
interestingness: 124 out of 228

photo: 951883220 6e03c7589b 1047
owner: 67899846@N00
title: Stadsparken Bor?s
originalsecret: 62ca4c1139
originalformat: jpg
o_height: null
o_width: null
datetaken: 2007-07-30 12:03:53
dateupload: 1185803629
tags: sweden mexican aster 2007 schmuckk?rbchen cosmosbipinnatus bor?s stadsparkenbor?s rosenk?ra
license: 0
latitude: 57.718790
longitude: 12.936020
accuracy: 16
views: 83
interestingness: 125 out of 228

photo: 261005476 4a77152a61 92
owner: 55299057@N00
title: Sahale Retreat, garden
originalsecret: 4a77152a61
originalformat: jpg
o_height: 1704
o_width: 2272
datetaken: 2006-10-04 18:20:17
dateupload: 1160003282
tags: dahlia garden geotagged aster sahaleretreat thegoodenoughcommunity zip98588 geolat47389997 geolong123025187
license: 2
latitude: 47.389997
longitude: -123.025187
accuracy: 16
views: 26
interestingness: 126 out of 228

photo: 271905691 5c7525def3 115
owner: 54289096@N00
title: late blooming aster
originalsecret: 5c7525def3
originalformat: jpg
o_height: 834
o_width: 664
datetaken: 2006-10-14 17:17:47
dateupload: 1161054042
tags: flowers autumn rocks fallcolor rockwall aster bga 20061014
license: 1
latitude: 35.612908
longitude: -82.566896
accuracy: 16
views: 54
interestingness: 127 out of 228

photo: 415948514 0d40ee5fdb 170
owner: 56452031@N00
title: Asters
originalsecret: null
originalformat: null
o_height: null
o_width: null
datetaken: 2005-11-20 00:00:02
dateupload: 1173483954
tags: flowers northcarolina fujivelvia nantahalanationalforest
license: 0
latitude: 35.323178
longitude: -83.593511
accuracy: 14
views: 28
interestingness: 128 out of 228

photo: 442340753 b65ca25d83 187
owner: 79842464@N00
title: Aster..
originalsecret: 459c27a77b
originalformat: jpg
o_height: 2592
o_width: 3888
datetaken: 2007-03-31 17:49:49
dateupload: 1175452525
tags: 50mm f14 ef 400d
license: 0
latitude: 47.612318
longitude: -122.329046
accuracy: 16
views: 43
interestingness: 129 out of 228

photo: 294405866 928d27032d 102
owner: 85693951@N00
title: purple asters
originalsecret: null
originalformat: null
o_height: null
o_width: null
datetaken: 2004-09-19 12:06:37
dateupload: 1163250699
tags: flowers farm
license: 0
latitude: 40.521449
longitude: -91.219782
accuracy: 16
views: 38
interestingness: 130 out of 228

photo: 263587235 878f8e25a3 80
owner: 56398280@N00
title: Monarchs on Asters(2)
originalsecret: 878f8e25a3
originalformat: jpg
o_height: null
o_width: null
datetaken: 2006-10-07 15:47:46
dateupload: 1160285264
tags: blue flower fall monarch aster
license: 3
latitude: 36.452718
longitude: -95.489226
accuracy: 15
views: 115
interestingness: 131 out of 228

photo: 295832547 84575ef5f3 108
owner: 80968132@N00
title: White Wood Aster
originalsecret: 84575ef5f3
originalformat: jpg
o_height: null
o_width: null
datetaken: 2006-09-24 17:53:29
dateupload: 1163374082
tags: nyc white newyork flower woods aster inwoodhillpark eurybiadivaricata
license: 1
latitude: 40.871111
longitude: -73.922592
accuracy: 16
views: 375
interestingness: 132 out of 228

photo: 295832563 27633b0d46 118
owner: 80968132@N00
title: White Wood Aster
originalsecret: 27633b0d46
originalformat: jpg
o_height: null
o_width: null
datetaken: 2006-10-08 12:24:51
dateupload: 1163374082
tags: nyc white newyork flower woods aster inwoodhillpark eurybiadivaricata
license: 1
latitude: 40.871111
longitude: -73.922592
accuracy: 16
views: 419
interestingness: 133 out of 228

photo: 293601298 19e0ac7a75 121
owner: 18079574@N00
title: 1903 Gamage Aster Tonneau
originalsecret: 19e0ac7a75
originalformat: jpg
o_height: null
o_width: null
datetaken: 2006-11-05 13:01:36
dateupload: 1163144069
tags: london car brighton run to veteran aster gamage
license: 0
latitude: 51.014780
longitude: -0.142586
accuracy: 15
views: 188
interestingness: 134 out of 228

photo: 442340607 4fa3b1518c 202
owner: 79842464@N00
title: Aster 2
originalsecret: c0ec78861b
originalformat: jpg
o_height: 3888
o_width: 2592
datetaken: 2007-03-31 19:07:02
dateupload: 1175452518
tags: 50mm f14 ef 400d
license: 0
latitude: 47.612318
longitude: -122.329046
accuracy: 16
views: 39
interestingness: 135 out of 228

photo: 442340439 d03a30e388 184
owner: 79842464@N00
title: Aster 1
originalsecret: 084ccb430c
originalformat: jpg
o_height: 3888
o_width: 2592
datetaken: 2007-03-31 18:36:54
dateupload: 1175452511
tags: 50mm f14 ef 400d
license: 0
latitude: 47.612318
longitude: -122.329046
accuracy: 16
views: 36
interestingness: 136 out of 228

photo: 837352222 68a0378a78 1421
owner: 9795006@N08
title: Aster Lake
originalsecret: b8a1024ed1
originalformat: jpg
o_height: 691
o_width: 1024
datetaken: 2007-07-17 05:31:03
dateupload: 1184675463
tags: reflection hiking sierras sequoiapark
license: 0
latitude: 36.600628
longitude: -118.679670
accuracy: 15
views: 31
interestingness: 137 out of 228

photo: 443153994 e49abfc042 180
owner: 79842464@N00
title: Aster & Stephen 4
originalsecret: 1433cea172
originalformat: jpg
o_height: 3888
o_width: 2592
datetaken: 2007-03-31 17:14:14
dateupload: 1175490705
tags: 50mm f14 ef 400d
license: 0
latitude: 47.612318
longitude: -122.329046
accuracy: 16
views: 34
interestingness: 138 out of 228

photo: 444424163 b0864f19cc 193
owner: 79842464@N00
title: Aster & Stephen 1
originalsecret: d38e60e7f1
originalformat: jpg
o_height: 2592
o_width: 3888
datetaken: 2007-03-31 17:24:20
dateupload: 1175569426
tags: 50mm f14 ef 400d
license: 0
latitude: 47.612318
longitude: -122.329046
accuracy: 16
views: 26
interestingness: 139 out of 228

photo: 444424205 af95af436e 202
owner: 79842464@N00
title: Aster, Stephen & Ted 1
originalsecret: cab15d893d
originalformat: jpg
o_height: 2592
o_width: 3888
datetaken: 2007-03-31 17:29:31
dateupload: 1175569429
tags: 50mm f14 ef 400d
license: 0
latitude: 47.612318
longitude: -122.329046
accuracy: 16
views: 33
interestingness: 140 out of 228

photo: 461054623 9923d9206b 184
owner: 30005552@N00
title: Asters in the Fall
originalsecret: null
originalformat: null
o_height: null
o_width: null
datetaken: 2006-10-06 18:47:26
dateupload: 1176697940
tags: park lake nature ledge metropark hinckley geotaggedohio
license: 0
latitude: 41.204723
longitude: -81.728432
accuracy: 16
views: 125
interestingness: 141 out of 228

photo: 301853576 1add7df602 111
owner: 95024634@N00
title: Aster Plaza International Youth House, Hiroshima
originalsecret: null
originalformat: null
o_height: null
o_width: null
datetaken: 2006-05-08 15:42:23
dateupload: 1164027296
tags: hiroshima japon asterplazainternationalyouthhouse
license: 0
latitude: 34.389204
longitude: 132.450485
accuracy: 11
views: 81
interestingness: 142 out of 228

photo: 301853620 5f2adc28b7 106
owner: 95024634@N00
title: Aster Plaza International Youth House, Hiroshima
originalsecret: null
originalformat: null
o_height: null
o_width: null
datetaken: 2006-05-08 15:42:48
dateupload: 1164027300
tags: hiroshima japon asterplazainternationalyouthhouse
license: 0
latitude: 34.389204
longitude: 132.450485
accuracy: 11
views: 129
interestingness: 143 out of 228

photo: 301853509 0e8cb9161a 100
owner: 95024634@N00
title: Aster Plaza International Youth House, Hiroshima
originalsecret: null
originalformat: null
o_height: null
o_width: null
datetaken: 2006-05-08 11:42:00
dateupload: 1164027289
tags: hiroshima japon asterplazainternationalyouthhouse
license: 0
latitude: 34.389204
longitude: 132.450485
accuracy: 11
views: 51
interestingness: 144 out of 228

photo: 301853541 bd55405e15 113
owner: 95024634@N00
title: Aster Plaza International Youth House, Hiroshima
originalsecret: null
originalformat: null
o_height: null
o_width: null
datetaken: 2006-05-08 15:42:07
dateupload: 1164027291
tags: hiroshima japon asterplazainternationalyouthhouse
license: 0
latitude: 34.389204
longitude: 132.450485
accuracy: 11
views: 52
interestingness: 145 out of 228

photo: 941860260 88874970b7 1391
owner: 49503180328@N01
title: Asters
originalsecret: 42d5d9c4ae
originalformat: jpg
o_height: null
o_width: null
datetaken: 2007-07-27 17:04:34
dateupload: 1185731325
tags: sky mountains clouds landscape utah hiking wildflowers
license: 1
latitude: 40.558808
longitude: -111.639976
accuracy: 12
views: 28
interestingness: 146 out of 228

photo: 463132605 c257b0423d 216
owner: 94336006@N00
title: David at the Aster
originalsecret: bbc62d92df
originalformat: jpg
o_height: null
o_width: null
datetaken: 2007-04-14 17:26:02
dateupload: 1176836419
tags: astercafe davidstenshoel
license: 0
latitude: 44.984626
longitude: -93.255112
accuracy: 16
views: 16
interestingness: 147 out of 228

photo: 433179457 d90506df54 147
owner: 92643936@N00
title: Wild Asters
originalsecret: 58642516a1
originalformat: jpg
o_height: null
o_width: null
datetaken: 2006-09-26 18:07:17
dateupload: 1174798513
tags: blue wild nature asters
license: 0
latitude: 41.371414
longitude: -83.241165
accuracy: 16
views: 200
interestingness: 148 out of 228

photo: 359518441 09afee3baf 166
owner: 47184979@N00
title: 0179
originalsecret: 09afee3baf
originalformat: jpg
o_height: 1728
o_width: 2304
datetaken: 2007-01-16 23:46:03
dateupload: 1168962363
tags: max jay albert ldh aster jostar
license: 0
latitude: 25.025884
longitude: 121.445617
accuracy: 8
views: 95
interestingness: 149 out of 228

photo: 359517405 cd01207aff 133
owner: 47184979@N00
title: 0173
originalsecret: cd01207aff
originalformat: jpg
o_height: 2304
o_width: 1728
datetaken: 2007-01-16 23:45:02
dateupload: 1168962302
tags: max jay albert ldh aster jostar
license: 0
latitude: 25.025884
longitude: 121.445617
accuracy: 8
views: 78
interestingness: 150 out of 228

photo: 359518140 d33a056a66 123
owner: 47184979@N00
title: 0177
originalsecret: d33a056a66
originalformat: jpg
o_height: 1728
o_width: 2304
datetaken: 2007-01-16 23:45:48
dateupload: 1168962348
tags: max jay albert ldh aster jostar
license: 0
latitude: 25.025884
longitude: 121.445617
accuracy: 8
views: 86
interestingness: 151 out of 228

photo: 359516879 a6d79023c7 129
owner: 47184979@N00
title: 0168
originalsecret: a6d79023c7
originalformat: jpg
o_height: 1728
o_width: 2304
datetaken: 2007-01-16 23:44:28
dateupload: 1168962268
tags: max jay albert ldh aster jostar
license: 0
latitude: 25.025884
longitude: 121.445617
accuracy: 8
views: 92
interestingness: 152 out of 228

photo: 359518284 6244601e00 164
owner: 47184979@N00
title: 0178
originalsecret: 6244601e00
originalformat: jpg
o_height: 1728
o_width: 2304
datetaken: 2007-01-16 23:45:56
dateupload: 1168962356
tags: max jay albert ldh aster jostar
license: 0
latitude: 25.025884
longitude: 121.445617
accuracy: 8
views: 87
interestingness: 153 out of 228

photo: 892581269 85d8b8da38 1203
owner: 8923357@N05
title: Mexican Aster
originalsecret: 7c604ace43
originalformat: jpg
o_height: null
o_width: null
datetaken: 2007-07-04 12:20:11
dateupload: 1185348302
tags: flowers flowerpicturesnolimits hamdel hamdeltobias
license: 0
latitude: 41.058324
longitude: -124.143179
accuracy: 16
views: 107
interestingness: 154 out of 228

photo: 233767674 617bd26765 90
owner: 60174753@N00
title: White Wood Aster
originalsecret: 617bd26765
originalformat: jpg
o_height: null
o_width: null
datetaken: 2006-09-03 08:53:44
dateupload: 1157377624
