
mintime: 1121832000 maxtime: 1123534363.36
numimgs: 17
total pages: 1
visiting only 1 pages ( up to 250 images)
photo: 31936614 5fed8412e6 22
owner: 90028379@N00
title: Carpet O Tulips
originalsecret: null
originalformat: null
o_height: null
o_width: null
datetaken: 2005-04-16 12:45:48
dateupload: 1123422538
tags: flower tree garden outdoors spring cocoabiscuit
license: 0
latitude: 39.872956
longitude: -75.673570
accuracy: 14
views: 546
interestingness: 1 out of 17

photo: 27745249 f073513714 23
owner: 87789260@N00
title: Pas de doute, on est en hollande
originalsecret: f073513714
originalformat: jpg
o_height: null
o_width: null
datetaken: 2005-07-22 19:14:59
dateupload: 1122027299
tags: aichiexpo2005 hollandpavilion japan tulip plasticflowers
license: 0
latitude: 35.194993
longitude: 137.064313
accuracy: 12
views: 551
interestingness: 2 out of 17

photo: 30808847 e0d8fbf1c6 23
owner: 79425003@N00
title: Yearning for Independence
originalsecret: e0d8fbf1c6
originalformat: jpg
o_height: null
o_width: null
datetaken: 2005-08-02 21:21:14
dateupload: 1123042874
tags: tulip skagit
license: 0
latitude: 48.427449
longitude: -122.426104
accuracy: 15
views: 217
interestingness: 3 out of 17

photo: 32017393 414290e170 23
owner: 50451021@N00
title: Flute amongst tulips
originalsecret: 414290e170
originalformat: jpg
o_height: null
o_width: null
datetaken: 2005-04-16 11:21:30
dateupload: 1123440927
tags: park pink flowers college university tulips performing arts maryland smith center flute clarice
license: 2
latitude: 38.990011
longitude: -76.950484
accuracy: 16
views: 244
interestingness: 4 out of 17

photo: 30926972 6cc8ad4b42 23
owner: 54276164@N00
title: wooden tulips II
originalsecret: 6cc8ad4b42
originalformat: jpg
o_height: null
o_width: null
datetaken: 2005-08-02 16:35:31
dateupload: 1123084752
tags: 2005 pink red orange green netherlands amsterdam yellow catchycolors rainbow colorful europe purple tulips kodak august singel flowermarket comment tulpen bloemenmarkt sz cx7330zoom kodakcx7330zoom
license: 3
latitude: 52.368315
longitude: 4.902520
accuracy: 16
views: 617
interestingness: 5 out of 17

photo: 32017482 43cf6ca2e9 22
owner: 50451021@N00
title: Flute's-eye-view
originalsecret: 43cf6ca2e9
originalformat: jpg
o_height: null
o_width: null
datetaken: 2005-04-16 11:24:54
dateupload: 1123440951
tags: park college reflections university tulips performing arts maryland smith center flute clarice
license: 2
latitude: 38.990011
longitude: -76.950484
accuracy: 16
views: 204
interestingness: 6 out of 17

photo: 28019521 cee7632124 21
owner: 64687483@N00
title: Blodel Garden Tulip Tree
originalsecret: null
originalformat: null
o_height: null
o_width: null
datetaken: 2006-06-01 00:00:00
dateupload: 1122147033
tags: ass beauty weather les season de la three spring cool noir place time antique ? johnson grand voiture kerry que des beaut? second belle quarter plage loin dart voitures pomme jeu ? hors artmatters bleus kerrythis myspacecom kerryjohnson kerrythismaccom kerryjohnsonphotography kerryonphotographicdesign kerryonphotography lalaska kerryl bluechickenproductions lautomobile billette 3qtrtym threequartertime kerryljohnson kerryleejohnson dartmatters soutiennent mettent bainbridgeislandwa
license: 0
latitude: 47.700787
longitude: -122.537920
accuracy: 16
views: 808
interestingness: 7 out of 17

photo: 30809412 623f52488f 21
owner: 79425003@N00
title: Honor the Fallen
originalsecret: 623f52488f
originalformat: jpg
o_height: null
o_width: null
datetaken: 2005-08-02 21:23:47
dateupload: 1123043027
tags: tulip skagit
license: 0
latitude: 48.428403
longitude: -122.428679
accuracy: 15
views: 202
interestingness: 8 out of 17

photo: 27319183 f470293d9e 22
owner: 40977838@N00
title: Tulips 2
originalsecret: null
originalformat: null
o_height: null
o_width: null
datetaken: 2005-07-20 09:38:32
dateupload: 1121862208
tags: flowers geotagged tulips geo:lat=37843499 geo:lon=144943668
license: 0
latitude: -37.843499
longitude: 144.943668
accuracy: 16
views: 76
interestingness: 9 out of 17

photo: 30734754 9a4b09ce28 23
owner: 34994230@N00
title: Tulips
originalsecret: 9a4b09ce28
originalformat: jpg
o_height: 960
o_width: 1280
datetaken: 2005-04-29 01:00:03
dateupload: 1123023603
tags: flower nature spring flat deko
license: 1
latitude: 47.387941
longitude: 8.524242
accuracy: 16
views: 42
interestingness: 10 out of 17

photo: 27627001 4f6e090058 23
owner: 47527967@N00
title: Single rose
originalsecret: null
originalformat: null
o_height: null
o_width: null
datetaken: 2005-07-20 19:14:20
dateupload: 1121977678
tags: portland oregon rose rosegarden fakelomo
license: 0
latitude: 45.518691
longitude: -122.705215
accuracy: 15
views: 121
interestingness: 11 out of 17

photo: 31279928 f84865bb98 21
owner: 87705552@N00
title: 130736600yLODGK_fs
originalsecret: null
originalformat: null
o_height: null
o_width: null
datetaken: 2005-08-04 14:41:39
dateupload: 1123191699
tags: sanfrancisco glodengatepark flowers tulips red yellow laughter couple
license: 0
latitude: 37.770850
longitude: -122.510046
accuracy: 14
views: 65
interestingness: 12 out of 17

photo: 31279854 c748268d31 23
owner: 87705552@N00
title: 130736644taziAP_fs
originalsecret: null
originalformat: null
o_height: null
o_width: null
datetaken: 2005-08-04 14:41:11
dateupload: 1123191671
tags: sanfrancisco goldengatepark windmill tulips
license: 0
latitude: 37.770850
longitude: -122.510046
accuracy: 14
views: 25
interestingness: 13 out of 17

photo: 27855609 fa0dc9f0ca 21
owner: 84496435@N00
title: Orange tulips
originalsecret: fa0dc9f0ca
originalformat: jpg
o_height: 2048
o_width: 3072
datetaken: 2004-03-28 10:53:22
dateupload: 1122073084
tags: nature flowers tulips
license: 4
latitude: 33.491043
longitude: -86.775947
accuracy: 16
views: 83
interestingness: 14 out of 17

photo: 27855457 58769a68a3 21
owner: 84496435@N00
title: White tulips
originalsecret: 58769a68a3
originalformat: jpg
o_height: 2048
o_width: 3072
datetaken: 2004-03-28 10:53:47
dateupload: 1122073010
tags: nature flowers tulips
license: 4
latitude: 33.491043
longitude: -86.775947
accuracy: 16
views: 87
interestingness: 15 out of 17

photo: 30735340 9f54759bd7 21
owner: 34994230@N00
title: Tulips
originalsecret: 9f54759bd7
originalformat: jpg
o_height: 1280
o_width: 960
datetaken: 2005-04-29 01:02:58
dateupload: 1123023778
tags: tulips flower flat spring deko
license: 1
latitude: 47.387941
longitude: 8.524242
accuracy: 16
views: 84
interestingness: 16 out of 17

photo: 30732055 2d042e98a1 21
owner: 60996171@N00
title: front yard tulips
originalsecret: 2d042e98a1
originalformat: jpg
o_height: 960
o_width: 1280
datetaken: 2005-04-23 14:45:51
dateupload: 1123022812
tags: dc
license: 1
latitude: 38.895575
longitude: -76.991630
accuracy: 16
views: 18
interestingness: 17 out of 17

photo: 32377917 c8a8757a08 23
owner: 25693318@N00
title: Tulips
originalsecret: c8a8757a08
originalformat: jpg
o_height: null
o_width: null
datetaken: 2003-05-18 14:09:45
dateupload: 1123532524
tags: pioneervalley westernmass geotagged geolat42125417 geolon72783153
license: 0
latitude: 42.125417
longitude: -72.783153
accuracy: 16
views: 61
interestingness: 18 out of 17


mintime: 1123534363.36 maxtime: 1136861224.27
numimgs: 234
total pages: 1
visiting only 1 pages ( up to 250 images)
photo: 80187382 4138b4cfbb 36
owner: 69985175@N00
title: tulip field
originalsecret: null
originalformat: null
o_height: null
o_width: null
datetaken: 2002-05-03 07:00:00
dateupload: 1136120810
tags: flowers red mountain snow flower green film nature field yellow japan spring nikon fuji mountfuji tulip fujisan 28105mmf3545d f80 nikkor ??? breathtaking mtfuji yamanashi fujiyama tulipano miwa theperfectphotographer bestofspring breathtakinggoldaward nikonflickraward50mostinteresting breathtakinghalloffame
license: 0
latitude: 35.448085
longitude: 138.863840
accuracy: 12
views: 16659
interestingness: 1 out of 234

photo: 38287568 627de6ca20 32
owner: 40551330@N00
title: Pink Tulips
originalsecret: 627de6ca20
originalformat: jpg
o_height: null
o_width: null
datetaken: 2004-04-17 17:13:46
dateupload: 1125336087
tags: pink flowers sky 15fav nature colors field topv111 510fav washington interestingness tulips northwest skagit mpf interestingness424 archive001
license: 4
latitude: 48.412681
longitude: -122.397909
accuracy: 13
views: 18782
interestingness: 2 out of 234

photo: 82812913 dc00bd613a 36
owner: 90028379@N00
title: Contemplating Spring
originalsecret: dc00bd613a
originalformat: jpg
o_height: 1452
o_width: 2068
datetaken: 2004-04-05 12:18:51
dateupload: 1136521131
tags: flower virginia spring tulip williamsburg i500 interestingness184 cocoabiscuit
license: 3
latitude: 37.265241
longitude: -76.703367
accuracy: 14
views: 4348
interestingness: 3 out of 234

photo: 54895006 55b49052dc 27
owner: 40551330@N00
title: Parting The Red Sea of Tulips
originalsecret: 55b49052dc
originalformat: jpg
o_height: null
o_width: null
datetaken: 2004-04-17 17:26:51
dateupload: 1130000876
tags: flowers red sky nature colors field topv111 510fav washington interestingness tulips northwest skagit interestingness126 i500 archive001
license: 4
latitude: 48.412681
longitude: -122.397909
accuracy: 13
views: 3872
interestingness: 4 out of 234

photo: 82914662 c39533b765 43
owner: 69839668@N00
title: Tulip
originalsecret: null
originalformat: null
o_height: null
o_width: null
datetaken: 2006-01-06 03:16:03
dateupload: 1136546163
tags: trip flowers deleteme5 deleteme8 deleteme deleteme2 deleteme3 deleteme4 deleteme6 deleteme9 deleteme7 colors deleteme10 australia tulip fav2 fav1 fav3
license: 0
latitude: -35.300416
longitude: 149.124813
accuracy: 12
views: 543
interestingness: 5 out of 234

photo: 50411309 aa4165930d 31
owner: 27825439@N00
title: Keukenhof Gardens - Skagit Valley Tulips
originalsecret: null
originalformat: null
o_height: null
o_width: null
datetaken: 2004-05-17 00:00:40
dateupload: 1128750105
tags: white flower holland netherlands gardens tulips tulip keukenhof liliaceae 1001gardens
license: 0
latitude: 52.269838
longitude: 4.545207
accuracy: 14
views: 1957
interestingness: 6 out of 234

photo: 54136949 6e93ea10e5 27
owner: 27825439@N00
title: Keukenhof Gardens - Antoinette Tulips
originalsecret: null
originalformat: null
o_height: null
o_width: null
datetaken: 2004-05-17 00:00:02
dateupload: 1129760170
tags: holland netherlands tulips keukenhof 1001gardens
license: 0
latitude: 52.269838
longitude: 4.545207
accuracy: 14
views: 675
interestingness: 7 out of 234

photo: 47378985 6627e323a9 33
owner: 18823794@N00
title: TULIP-FESTIVAL-06 / Couple In Love
originalsecret: null
originalformat: null
o_height: null
o_width: null
datetaken: 2005-09-28 18:58:27
dateupload: 1127897907
tags: festival garden sweet secret melbourne tulip cheerful
license: 0
latitude: -37.845474
longitude: 145.423278
accuracy: 4
views: 702
interestingness: 8 out of 234

photo: 44866406 f465d9a61d 32
owner: 56126478@N00
title: Holland 2005  Tulip Farm
originalsecret: f465d9a61d
originalformat: jpg
o_height: null
o_width: null
datetaken: 2005-09-19 21:28:51
dateupload: 1127179731
tags: holland michigan tulip tulips flower flowers plant plants garden
license: 0
latitude: 42.841269
longitude: -86.098426
accuracy: 16
views: 2796
interestingness: 9 out of 234

photo: 78932417 85db5db4e4 41
owner: 69985175@N00
title: Sleeping tulip
originalsecret: null
originalformat: null
o_height: null
o_width: null
datetaken: 2002-05-03 00:17:07
dateupload: 1135869427
tags: longexposure 2002 red sky moon mountain snow flower film nature yellow japan night stars star spring nikon fuji nightscape mountfuji tulip fujisan moonlight nightsky nightview 28105mmf3545d f80 nikkor fujichrome ??? mtfuji yamanashi startrails fujiyama miwa provia400f rhplll
license: 0
latitude: 35.448085
longitude: 138.863840
accuracy: 12
views: 953
interestingness: 10 out of 234

photo: 50411326 c53f0bb1da 33
owner: 27825439@N00
title: Keukenhof Gardens - Sorbet Tulips
originalsecret: null
originalformat: null
o_height: null
o_width: null
datetaken: 2004-05-17 00:00:37
dateupload: 1128750111
tags: flower holland netherlands tulips tulip keukenhof liliaceae 1001gardens
license: 0
latitude: 52.269838
longitude: 4.545207
accuracy: 14
views: 537
interestingness: 11 out of 234

photo: 65680013 26cb73f407 27
owner: 18438746@N00
title: sea of red
originalsecret: null
originalformat: null
o_height: null
o_width: null
datetaken: 2005-04-09 16:03:41
dateupload: 1132617714
tags: 
license: 0
latitude: 48.417410
longitude: -122.419710
accuracy: 13
views: 217
interestingness: 12 out of 234

photo: 66680587 b3f2eff9a3 32
owner: 18438746@N00
title: Tulip Festival, Mt Vernon WA
originalsecret: null
originalformat: null
o_height: null
o_width: null
datetaken: 2005-04-09 16:59:43
dateupload: 1132894866
tags: festival tulip
license: 0
latitude: 48.417410
longitude: -122.419710
accuracy: 13
views: 394
interestingness: 13 out of 234

photo: 54136917 4163b1177d 26
owner: 27825439@N00
title: Keukenhof Gardens
originalsecret: null
originalformat: null
o_height: null
o_width: null
datetaken: 2004-05-17 00:00:05
dateupload: 1129760161
tags: holland netherlands gardens tulips keukenhof 1001gardens
license: 0
latitude: 52.269838
longitude: 4.545207
accuracy: 14
views: 415
interestingness: 14 out of 234

photo: 80223812 857ded7417 40
owner: 23446078@N00
title: Tulip
originalsecret: null
originalformat: null
o_height: null
o_width: null
datetaken: 2005-04-21 11:22:37
dateupload: 1136127263
tags: pink tulipsinbloom stormyinga
license: 0
latitude: 34.669358
longitude: -84.726562
accuracy: 3
views: 191
interestingness: 15 out of 234

photo: 51752635 995e53bff9 32
owner: 27825439@N00
title: Keukenhof Gardens - Tulips and Muscari
originalsecret: null
originalformat: null
o_height: null
o_width: null
datetaken: 2004-05-17 00:00:24
dateupload: 1129086550
tags: holland netherlands gardens tulips keukenhof 1001gardens
license: 0
latitude: 52.269838
longitude: 4.545207
accuracy: 14
views: 371
interestingness: 16 out of 234

photo: 73150052 5e4fb69566 20
owner: 82982298@N00
title: Tulipany - Tulips
originalsecret: 5e4fb69566
originalformat: jpg
o_height: 684
o_width: 1024
datetaken: 2005-12-13 03:40:43
dateupload: 1134474043
tags: flowers red flower green spring natur tulip blume tulipa tulpen tulipano tulipes kwiat tulipan tulip?n lale tulppaanit ??????? ???? laleaua ?????????? ???????????? ????????
license: 0
latitude: 48.008328
longitude: 16.222987
accuracy: 14
views: 218
interestingness: 17 out of 234

photo: 38429845 1b12fed1c3 21
owner: 82906348@N00
title: Simon Bolivar
originalsecret: null
originalformat: null
o_height: null
o_width: null
datetaken: 2001-04-08 13:53:28
dateupload: 1125366358
tags: washingtondc washington dc statues spring springtime flowers tulips simonbolivar cybershot sonycybershot equestrian
license: 0
latitude: 38.893220
longitude: -77.042226
accuracy: 16
views: 318
interestingness: 18 out of 234

photo: 51444828 3e603841b4 25
owner: 27825439@N00
title: Keukenhof Gardens
originalsecret: null
originalformat: null
o_height: null
o_width: null
datetaken: 2004-05-17 00:00:26
dateupload: 1129003084
tags: holland netherlands tulips keukenhof 1001gardens
license: 0
latitude: 52.269838
longitude: 4.545207
accuracy: 14
views: 238
interestingness: 19 out of 234

photo: 74787358 4ccbfc758f 36
owner: 82982298@N00
title: Tulipan - Tulip
originalsecret: 4ccbfc758f
originalformat: jpg
o_height: 1624
o_width: 1024
datetaken: 2005-12-18 16:53:17
dateupload: 1134921197
tags: flowers red flower green spring natur tulip blume tulipa tulpen tulipano tulipes kwiat tulipan tulip?n lale tulppaanit ??????? ???? laleaua ?????????? ???????????? ????????
license: 0
latitude: 48.008328
longitude: 16.222987
accuracy: 14
views: 137
interestingness: 20 out of 234

photo: 74787359 846f741847 41
owner: 82982298@N00
title: Tulipany - Tulips
originalsecret: 846f741847
originalformat: jpg
o_height: 651
o_width: 1024
datetaken: 2005-12-18 16:53:17
dateupload: 1134921197
tags: flowers red flower green spring natur tulip blume tulipa tulpen tulipano tulipes kwiat tulipan tulip?n lale tulppaanit ??????? ???? laleaua ?????????? ???????????? ????????
license: 0
latitude: 48.008328
longitude: 16.222987
accuracy: 14
views: 178
interestingness: 21 out of 234

photo: 65680359 e56cc7b3d4 34
owner: 18438746@N00
title: rows of yellow !!!
originalsecret: null
originalformat: null
o_height: null
o_width: null
datetaken: 2005-04-09 16:30:12
dateupload: 1132617775
tags: 2005 summer yellow landscape washington tulips tulipfestival mtvernon
license: 0
latitude: 48.417410
longitude: -122.419710
accuracy: 13
views: 188
interestingness: 22 out of 234

photo: 82120030 9d032885c7 41
owner: 22443621@N00
title: Icelandic Tulip
originalsecret: 9d032885c7
originalformat: jpg
o_height: 768
o_width: 1024
datetaken: 2003-06-06 11:44:56
dateupload: 1136397627
tags: flower yellow iceland tulip myvatn
license: 1
latitude: 65.810655
longitude: -16.946411
accuracy: 7
views: 311
interestingness: 23 out of 234

photo: 54136910 62f6efbd9f 24
owner: 27825439@N00
title: Keukenhof Gardens
originalsecret: null
originalformat: null
o_height: null
o_width: null
datetaken: 2004-05-17 00:00:07
dateupload: 1129760158
tags: holland netherlands gardens tulips keukenhof 1001gardens
license: 0
latitude: 52.269838
longitude: 4.545207
accuracy: 14
views: 353
interestingness: 24 out of 234

photo: 78115909 da2b3785f0 39
owner: 19647304@N00
title: Springtime
originalsecret: null
originalformat: null
o_height: null
o_width: null
datetaken: 2004-05-07 21:01:20
dateupload: 1135709168
tags: down syndrome t21 downs red flowers tulips
license: 0
latitude: 40.709792
longitude: -74.904785
accuracy: 7
views: 585
interestingness: 25 out of 234

photo: 51437068 1038ec0c2c 27
owner: 27825439@N00
title: Keukenhof Gardens
originalsecret: null
originalformat: null
o_height: null
o_width: null
datetaken: 2004-05-17 00:00:33
dateupload: 1129001691
tags: holland netherlands tulips keukenhof 1001gardens
license: 0
latitude: 52.269838
longitude: 4.545207
accuracy: 14
views: 219
interestingness: 26 out of 234

photo: 44866405 4d1ad314bb 29
owner: 56126478@N00
title: Holland 2005  Tulip Farm Flower
originalsecret: 4d1ad314bb
originalformat: jpg
o_height: null
o_width: null
datetaken: 2005-09-19 21:28:51
dateupload: 1127179731
tags: flowers red plants plant flower holland yellow garden tulips michigan tulip half
license: 0
latitude: 42.841281
longitude: -86.098115
accuracy: 16
views: 593
interestingness: 27 out of 234

photo: 36356614 d9e95cfd58 31
owner: 27825439@N00
title: Chicago
originalsecret: null
originalformat: null
o_height: null
o_width: null
datetaken: 2005-04-28 18:23:56
dateupload: 1124754969
tags: flowers chicago tulips
license: 0
latitude: 41.880665
longitude: -87.624378
accuracy: 16
views: 168
interestingness: 28 out of 234

photo: 35334029 94f9d06c02 28
owner: 90484572@N00
title: John Innes Park
originalsecret: null
originalformat: null
o_height: null
o_width: null
datetaken: 2005-08-19 14:18:05
dateupload: 1124457485
tags: tulips 1985 springflowers merton mertonpark johninnes johninnespark
license: 0
latitude: 51.409679
longitude: -0.206154
accuracy: 16
views: 1448
interestingness: 29 out of 234

photo: 51437110 17860df6dd 25
owner: 27825439@N00
title: Keukenhof Garden
originalsecret: null
originalformat: null
o_height: null
o_width: null
datetaken: 2004-05-17 00:00:31
dateupload: 1129001699
tags: holland netherlands gardens tulips keukenhof 1001gardens
license: 0
latitude: 52.269838
longitude: 4.545207
accuracy: 14
views: 202
interestingness: 30 out of 234

photo: 51437131 71341e910b 33
owner: 27825439@N00
title: Keukenhof Gardens - Red Pink Orange Riot
originalsecret: null
originalformat: null
o_height: null
o_width: null
datetaken: 2004-05-17 00:00:27
dateupload: 1129001705
tags: holland netherlands tulips keukenhof 1001gardens
license: 0
latitude: 52.269838
longitude: 4.545207
accuracy: 14
views: 419
interestingness: 31 out of 234

photo: 50411331 7ea601e0cf 33
owner: 27825439@N00
title: Keukenhof Gardens - Hamilton Tulips
originalsecret: null
originalformat: null
o_height: null
o_width: null
datetaken: 2004-05-17 00:00:36
dateupload: 1128750114
tags: holland netherlands tulips keukenhof 1001gardens
license: 0
latitude: 52.269838
longitude: 4.545207
accuracy: 14
views: 254
interestingness: 32 out of 234

photo: 39869155 486f89749a 21
owner: 40588894@N00
title: Tulipanes tomando el sol en la terraza
originalsecret: 486f89749a
originalformat: jpg
o_height: null
o_width: null
datetaken: 2005-04-04 12:31:33
dateupload: 1125772042
tags: tulipanes tulipan tulip rojo red flores flowers fleurs loreak
license: 0
latitude: 39.420049
longitude: -0.496020
accuracy: 16
views: 1092
interestingness: 33 out of 234

photo: 53050901 f8686b5f00 32
owner: 60849961@N00
title: tulips
originalsecret: f8686b5f00
originalformat: jpg
o_height: null
o_width: null
datetaken: 2005-01-22 14:38:00
dateupload: 1129484822
tags: pink flowers tulips wcshart2007
license: 3
latitude: 30.282361
longitude: -97.696148
accuracy: 16
views: 202
interestingness: 34 out of 234

photo: 44869283 ed6e1d6d1c 26
owner: 56126478@N00
title: Holland 2005  Tulip Farm Flower
originalsecret: ed6e1d6d1c
originalformat: jpg
o_height: null
o_width: null
datetaken: 2005-09-19 21:39:24
dateupload: 1127180364
tags: holland michigan tulip tulips flower flowers plant plants garden purple
license: 0
latitude: 42.841249
longitude: -86.098330
accuracy: 16
views: 832
interestingness: 35 out of 234

photo: 50411294 3b5103f7c1 32
owner: 27825439@N00
title: Keukenhof Azalea Garden
originalsecret: null
originalformat: null
o_height: null
o_width: null
datetaken: 2004-05-17 00:00:38
dateupload: 1128750099
tags: holland netherlands gardens azaleas keukenhof 1001gardens
license: 0
latitude: 52.269838
longitude: 4.545207
accuracy: 14
views: 337
interestingness: 36 out of 234

photo: 67255366 43e7867674 34
owner: 35237093637@N01
title: tulips, pg-13 version
originalsecret: 43e7867674
originalformat: jpg
o_height: 1563
o_width: 1947
datetaken: 2005-11-19 22:16:40
dateupload: 1133045769
tags: interior tulips oc ficus light
license: 4
latitude: 33.636274
longitude: -117.815709
accuracy: 16
views: 1234
interestingness: 37 out of 234

photo: 82199743 c07976a0d5 43
owner: 19159109@N00
title: chopped ocean clams with msg*
originalsecret: null
originalformat: null
o_height: null
o_width: null
datetaken: 2006-01-04 08:08:47
dateupload: 1136410201
tags: nyc flowers amaryllis florist hyacinth flowerdistrict
license: 0
latitude: 40.746663
longitude: -73.992050
accuracy: 16
views: 377
interestingness: 38 out of 234

photo: 80464802 44648d42cc 38
owner: 61596038@N00
title: Inflamed tulip
originalsecret: null
originalformat: null
o_height: null
o_width: null
datetaken: 2004-04-11 09:23:44
dateupload: 1136153500
tags: red orange flower topv111 geotagged flame dew tulip skagit dewy 111v1f geolon1223996 geolat484167
license: 0
latitude: 48.416700
longitude: -122.399600
accuracy: 16
views: 353
interestingness: 39 out of 234

photo: 51437166 84ca5b86a8 32
owner: 27825439@N00
title: Keukenhof Gardens
originalsecret: null
originalformat: null
o_height: null
o_width: null
datetaken: 2004-05-17 00:00:30
dateupload: 1129001711
tags: holland netherlands gardens tulips keukenhof 1001gardens
license: 0
latitude: 52.269838
longitude: 4.545207
accuracy: 14
views: 193
interestingness: 40 out of 234

photo: 72607435 db3b1d6489 35
owner: 35034348332@N01
title: Early or late magnolia
originalsecret: db3b1d6489
originalformat: jpg
o_height: null
o_width: null
datetaken: 2005-12-11 17:00:35
dateupload: 1134349235
tags: plant flower 20d oakland downtown blossom bloom magnolia tulipmagnolia saucermagnolia oldoakland mlkway
license: 3
latitude: 37.804007
longitude: -122.277638
accuracy: 16
views: 330
interestingness: 41 out of 234

photo: 51752616 c7dcb49e4d 28
owner: 27825439@N00
title: Keukenhof Gardens - Montgomery Tulips
originalsecret: null
originalformat: null
o_height: null
o_width: null
datetaken: 2004-05-17 00:00:25
dateupload: 1129086547
tags: holland netherlands gardens tulips keunkenhof 1001gardens
license: 0
latitude: 52.269838
longitude: 4.545207
accuracy: 14
views: 235
interestingness: 42 out of 234

photo: 39869156 b2fc7624d1 29
owner: 40588894@N00
title: Tulip?n naranja
originalsecret: b2fc7624d1
originalformat: jpg
o_height: null
o_width: null
datetaken: 2005-04-04 12:22:58
dateupload: 1125772042
tags: tulipanes tulipan tulip naranja orange flores flowers fleurs loreak
license: 0
latitude: 39.420049
longitude: -0.496020
accuracy: 16
views: 555
interestingness: 43 out of 234

photo: 51437122 3989d94d3f 32
owner: 27825439@N00
title: Keukenhof Gardens - Red Pink Orange Riot
originalsecret: null
originalformat: null
o_height: null
o_width: null
datetaken: 2004-05-17 00:00:28
dateupload: 1129001702
tags: holland netherlands tulips keukenhof 1001gardens
license: 0
latitude: 52.269838
longitude: 4.545207
accuracy: 14
views: 147
interestingness: 44 out of 234

photo: 48068549 305c553041 30
owner: 25113640@N00
title: Tulips
originalsecret: 305c553041
originalformat: jpg
o_height: 1055
o_width: 1583
datetaken: 2005-09-30 15:41:58
dateupload: 1128109318
tags: pink flowers red ontario canada festival spring tulips ottawa
license: 1
latitude: 45.397628
longitude: -75.706529
accuracy: 16
views: 112
interestingness: 45 out of 234

photo: 73161091 3490a10c95 34
owner: 82982298@N00
title: Tulipany - Tulips - Doblhofpark Baden
originalsecret: 3490a10c95
originalformat: jpg
o_height: 1489
o_width: 1024
datetaken: 2005-12-13 04:53:23
dateupload: 1134478403
tags: flowers red flower spring natur tulip blume tulipa tulpen tulipano tulipes kwiat tulipan tulip?n lale tulppaanit ??????? ???? laleaua ?????????? ???????????? ????????
license: 0
latitude: 48.004280
longitude: 16.234531
accuracy: 12
views: 225
interestingness: 46 out of 234

photo: 48896520 20a9c92e5c 29
owner: 27217020@N00
title: tulips
originalsecret: 20a9c92e5c
originalformat: jpg
o_height: 960
o_width: 1280
datetaken: 2005-09-25 16:26:42
dateupload: 1128314737
tags: newzealand wellington nz tulips flowers botanicgardens springfestival color
license: 0
latitude: -41.283611
longitude: 174.765787
accuracy: 12
views: 245
interestingness: 47 out of 234

photo: 51437093 bc7cddc70b 30
owner: 27825439@N00
title: Keukenhof Gardens - Burgundy Lace
originalsecret: null
originalformat: null
o_height: null
o_width: null
datetaken: 2004-05-17 00:00:32
dateupload: 1129001696
tags: holland netherlands tulips keukenhof 1001gardens
license: 0
latitude: 52.269838
longitude: 4.545207
accuracy: 14
views: 195
interestingness: 48 out of 234

photo: 49165866 994b864c53 26
owner: 93544306@N00
title: Tulips
originalsecret: 994b864c53
originalformat: jpg
o_height: null
o_width: null
datetaken: 2005-09-22 09:32:43
dateupload: 1128384444
tags: tulip tulips pink red flowers canberra
license: 1
latitude: -35.288506
longitude: 149.129447
accuracy: 12
views: 947
interestingness: 49 out of 234

photo: 54136445 02aa5827e5 28
owner: 27825439@N00
title: Keukenhof Gardens
originalsecret: null
originalformat: null
o_height: null
o_width: null
datetaken: 2009-04-06 22:38:16
dateupload: 1129760026
tags: holland netherlands gardens topiary tulips keukenhof 1001gardens
license: 0
latitude: 52.269838
longitude: 4.545207
accuracy: 14
views: 308
interestingness: 50 out of 234

photo: 54136938 b6005a6c52 33
owner: 27825439@N00
title: Keukenhof Gardens - Golden Artist Tulips
originalsecret: null
originalformat: null
o_height: null
o_width: null
datetaken: 2004-05-17 00:00:03
dateupload: 1129760167
tags: holland netherlands tulips keukenhof 1001gardens
license: 0
latitude: 52.269838
longitude: 4.545207
accuracy: 14
views: 244
interestingness: 51 out of 234

photo: 56265402 d967abde8a 28
owner: 65409933@N00
title: Tree and canal in Hortus Botanicus
originalsecret: null
originalformat: null
o_height: null
o_width: null
datetaken: 2005-09-03 10:21:35
dateupload: 1130331809
tags: holland tree netherlands geotagged canal leiden hortusbotanicus geo:tool=gmif geo:lat=52156048 geo:lon=4483495 geo:lat=52155956 geo:lon=4483854
license: 0
latitude: 52.156048
longitude: 4.483495
accuracy: 16
views: 153
interestingness: 52 out of 234

photo: 54136463 eef2d0e70b 29
owner: 27825439@N00
title: Keukenhof Gardens
originalsecret: null
originalformat: null
o_height: null
o_width: null
datetaken: 2004-05-17 00:00:10
dateupload: 1129760029
tags: holland netherlands gardens tulips wisteria muscari keukenhof 1001gardens
license: 0
latitude: 52.269838
longitude: 4.545207
accuracy: 14
views: 272
interestingness: 53 out of 234

photo: 76722806 8d1374d5ce 6
owner: 87058624@N00
title: Winter blooms
originalsecret: null
originalformat: null
o_height: null
o_width: null
datetaken: 2005-12-18 13:21:11
dateupload: 1135384963
tags: utrecht netherlands christmas shopping street flowers tulips colour vibrant bright bloom bouquet yellow tulip
license: 0
latitude: 52.096962
longitude: 5.100231
accuracy: 12
views: 408
interestingness: 54 out of 234

photo: 66903200 3272a41427 24
owner: 25694343@N00
title: Weinheim Hermannshof Garten - P4110038
originalsecret: 3272a41427
originalformat: jpg
o_height: null
o_width: null
datetaken: 2004-04-11 12:33:45
dateupload: 1132957227
tags: 2004 germany garden deutschland europa europe tulip garten tulpe weinheim candreashelke hermannshof 200512089 2005121511 donothide oldstileoriginalsecret popularold
license: 0
latitude: 49.555395
longitude: 8.672847
accuracy: 12
views: 333
interestingness: 55 out of 234

photo: 44866404 337955e294 27
owner: 56126478@N00
title: Holland 2005  Tulip Farm
originalsecret: 337955e294
originalformat: jpg
o_height: null
o_width: null
datetaken: 2005-09-19 21:28:51
dateupload: 1127179731
tags: holland michigan tulip tulips flower flowers plant plants garden
license: 0
latitude: 42.841257
longitude: -86.098394
accuracy: 16
views: 541
interestingness: 56 out of 234

photo: 82235151 6a91250545 40
owner: 19159109@N00
title: inspecting the merchandise
originalsecret: null
originalformat: null
o_height: null
o_width: null
datetaken: 2006-01-04 08:27:31
dateupload: 1136415421
tags: nyc florist flowerdistrict storekitty
license: 0
latitude: 40.746663
longitude: -73.992050
accuracy: 16
views: 301
interestingness: 57 out of 234

photo: 51437146 51a0a92978 26
owner: 27825439@N00
title: Keukenhof Gardens
originalsecret: null
originalformat: null
o_height: null
o_width: null
datetaken: 2004-05-17 00:00:29
dateupload: 1129001708
tags: holland netherlands gardens tulips keukenhof 1001gardens
license: 0
latitude: 52.269838
longitude: 4.545207
accuracy: 14
views: 159
interestingness: 58 out of 234

photo: 50411299 3e5ae26d23 31
owner: 27825439@N00
title: Keukenhof Sculpture Garden
originalsecret: null
originalformat: null
o_height: null
o_width: null
datetaken: 2004-05-17 00:00:39
dateupload: 1128750102
tags: holland netherlands gardens tulips keukenhof 1001gardens
license: 0
latitude: 52.269838
longitude: 4.545207
accuracy: 14
views: 348
interestingness: 59 out of 234

photo: 77082930 35a2b06366 42
owner: 28371367@N00
title: Paris Day 11 063
originalsecret: null
originalformat: null
o_height: null
o_width: null
datetaken: 2005-05-11 02:55:14
dateupload: 1135491514
tags: paris france giverny flowers tulips monet garden monetsgarden
license: 0
latitude: 48.872844
longitude: 2.364807
accuracy: 9
views: 138
interestingness: 60 out of 234

photo: 61872758 7c38b84e40 24
owner: 71418112@N00
title: Slough on Tulip Tree Trail
originalsecret: null
originalformat: null
o_height: null
o_width: null
datetaken: 2005-11-10 09:25:09
dateupload: 1131632709
tags: nature rondeau tree water trees reflections grass summer flora
license: 0
latitude: 42.301309
longitude: -81.849474
accuracy: 13
views: 186
interestingness: 61 out of 234

photo: 76722808 5f8328830f 9
owner: 87058624@N00
title: Winter blooms
originalsecret: null
originalformat: null
o_height: null
o_width: null
datetaken: 2005-12-18 13:20:27
dateupload: 1135384963
tags: utrecht netherlands christmas shopping street flowers tulips colour vibrant bright bloom bouquet
license: 0
latitude: 52.096962
longitude: 5.100231
accuracy: 12
views: 199
interestingness: 62 out of 234

photo: 40753887 aeeaeaf268 24
owner: 40588894@N00
title: All? voy
originalsecret: aeeaeaf268
originalformat: jpg
o_height: null
o_width: null
datetaken: 2005-03-28 18:47:23
dateupload: 1125993913
tags: tulipan tulip flores flowers fleurs loreak
license: 0
latitude: 39.420049
longitude: -0.496020
accuracy: 16
views: 168
interestingness: 63 out of 234

photo: 39462663 a83fa9d96d 27
owner: 25964031@N00
title: DSCN2690
originalsecret: a83fa9d96d
originalformat: jpg
o_height: null
o_width: null
datetaken: 2003-05-02 16:13:14
dateupload: 1125643791
tags: china park old man japan asian bush tulips dalian statues tourists reclining liaoning
license: 0
latitude: 38.925496
longitude: 121.642169
accuracy: 11
views: 402
interestingness: 64 out of 234

photo: 63168829 da9a37fbc4 24
owner: 92706520@N00
title: Tulips from Amsterdam
originalsecret: da9a37fbc4
originalformat: jpg
o_height: 1024
o_width: 1024
datetaken: 2005-11-13 13:24:10
dateupload: 1131963854
tags: tulips amsterdam flowers
license: 3
latitude: 52.373156
longitude: 4.891694
accuracy: 15
views: 386
interestingness: 65 out of 234

photo: 48318247 cf427a0b61 27
owner: 82463288@N00
title: Tulip festival, The Netherlands
originalsecret: null
originalformat: null
o_height: null
o_width: null
datetaken: 2004-05-01 20:35:28
dateupload: 1128186873
tags: travel red flower color netherlands dutch yellow festival nikon europe european tulips backpacking tulip coolpix 5700 nikon5700 nikoncoolpix5700
license: 0
latitude: 52.025458
longitude: 4.790039
accuracy: 4
views: 279
interestingness: 66 out of 234

photo: 43840605 04e49bb940 30
owner: 49598345@N00
title: tulips
originalsecret: 04e49bb940
originalformat: jpg
o_height: null
o_width: null
datetaken: 2005-09-16 21:52:29
dateupload: 1126896749
tags: tulips flower
license: 4
latitude: 40.434796
longitude: -79.924850
accuracy: 11
views: 597
interestingness: 67 out of 234

photo: 76722807 83db7f4601 43
owner: 87058624@N00
title: Winter blooms
originalsecret: null
originalformat: null
o_height: null
o_width: null
datetaken: 2005-12-18 13:20:41
dateupload: 1135384963
tags: utrecht netherlands christmas shopping street flowers tulips colour vibrant bright bloom bouquet
license: 0
latitude: 52.096962
longitude: 5.100231
accuracy: 12
views: 159
interestingness: 68 out of 234

photo: 79765312 81498a5038 39
owner: 25694343@N00
title: Weinheim Hermannshof Garten - P4170093
originalsecret: 81498a5038
originalformat: jpg
o_height: null
o_width: null
datetaken: 2004-04-17 17:59:31
dateupload: 1136036852
tags: flower 2004 yellow germany deutschland europa europe gelb tulip blume bl?te twa 1205 tulpe weinheim candreashelke hermannshof 200512314 2006010211 haslargesize donothide oldstileoriginalsecret popularold
license: 0
latitude: 49.555395
longitude: 8.672847
accuracy: 12
views: 225
interestingness: 69 out of 234

photo: 47974078 339f0a7f66 26
owner: 43132185@N00
title: Polka dot
originalsecret: 339f0a7f66
originalformat: jpg
o_height: null
o_width: null
datetaken: 2005-09-10 15:26:24
dateupload: 1128082181
tags: freeassociation modern turkey tile ceramic aya pattern sofia patterns t?rkiye istanbul t?r?korsz?g tiles sophia dotty hagia turkishtiles iznik nicea
license: 2
latitude: 41.007981
longitude: 28.979015
accuracy: 14
views: 610
interestingness: 70 out of 234

photo: 78442096 cf1c719ace 41
owner: 41867887@N00
title: air
originalsecret: cf1c719ace
originalformat: jpg
o_height: 450
o_width: 347
datetaken: 2005-12-28 09:26:40
dateupload: 1135772800
tags: city brazil urban flower nature brasil saopaulo cotidiano daily petal sampa
license: 3
latitude: -23.550139
longitude: -46.635074
accuracy: 12
views: 52
interestingness: 71 out of 234

photo: 80223814 e6edbeded7 39
owner: 23446078@N00
title: Tulip, fully open
originalsecret: null
originalformat: null
o_height: null
o_width: null
datetaken: 2005-05-10 14:48:56
dateupload: 1136127263
tags: tulip springflowers sunkissedflowers stormyinga eoskissrebel300d
license: 0
latitude: 34.669358
longitude: -84.726562
accuracy: 3
views: 95
interestingness: 72 out of 234

photo: 78447070 ebb7dd020a 42
owner: 41867887@N00
title: bvi
originalsecret: ebb7dd020a
originalformat: jpg
o_height: 450
o_width: 600
datetaken: 2005-12-28 09:44:30
dateupload: 1135773870
tags: city brazil urban flower nature brasil saopaulo cotidiano daily petal sampa
license: 3
latitude: -23.550139
longitude: -46.635074
accuracy: 12
views: 31
interestingness: 73 out of 234

photo: 48981301 1101a81db0 28
owner: 71453924@N00
title: #639 tulips at love hotel entrance
originalsecret: 1101a81db0
originalformat: jpg
o_height: 1800
o_width: 2400
datetaken: 2005-07-30 13:38:27
dateupload: 1128341583
tags: flower love geotagged hotel tokyo flora ueno tulip ?? ? ?? ?????? t?ky? ????? ????? geo:lon=139767723 geo:lat=35710629
license: 1
latitude: 35.710629
longitude: 139.767723
accuracy: 16
views: 607
interestingness: 74 out of 234

photo: 66236862 0ebc508ff2 26
owner: 50009661@N00
title: Tulip
originalsecret: 0ebc508ff2
originalformat: jpg
o_height: null
o_width: null
datetaken: 1994-04-01 00:00:00
dateupload: 1132769531
tags: flower nature tulip
license: 0
latitude: 43.812618
longitude: -91.251922
accuracy: 16
views: 65
interestingness: 75 out of 234

photo: 53969885 ba035fa672 33
owner: 92237387@N00
title: Tulip
originalsecret: ba035fa672
originalformat: jpg
o_height: 2448
o_width: 3264
datetaken: 2004-05-30 14:26:03
dateupload: 1129708172
tags: flowers
license: 1
latitude: 51.100738
longitude: -114.182487
accuracy: 15
views: 53
interestingness: 76 out of 234

photo: 47308819 30d453b74f 25
owner: 26505707@N00
title: Rainy Tulip
originalsecret: 30d453b74f
originalformat: jpg
o_height: 700
o_width: 466
datetaken: 2005-09-27 23:05:46
dateupload: 1127876746
tags: flowers plants wet rain canon garden droplets spring powershot tulip g3
license: 2
latitude: 41.536872
longitude: -81.628353
accuracy: 16
views: 208
interestingness: 77 out of 234

photo: 36338202 7c79b12c01 30
owner: 39514049@N00
title: Tulip Beds
originalsecret: null
originalformat: null
o_height: null
o_width: null
datetaken: 2005-08-22 23:38:30
dateupload: 1124750310
tags: auto street flowers red usa chicago flower 2004 yellow illinois tulips beds may porsche northmichiganavenue northamericablog
license: 0
latitude: 41.891863
longitude: -87.614507
accuracy: 13
views: 134
interestingness: 78 out of 234

photo: 1185503305 958fdcfd58 1330
owner: 89095523@N00
title: 2004_0405Image0015
originalsecret: null
originalformat: null
o_height: null
o_width: null
datetaken: 2004-04-05 17:15:27
dateupload: 1132799075
tags: floral
license: 0
latitude: 39.051318
longitude: -94.588744
accuracy: 16
views: 30
interestingness: 79 out of 234

photo: 34209594 927fcbc878 23
owner: 43871217@N00
title: HPIM0033
originalsecret: 927fcbc878
originalformat: jpg
o_height: 2608
o_width: 1952
datetaken: 2005-05-14 16:19:24
dateupload: 1124112755
tags: ottawa tulip 2005 flower
license: 3
latitude: 45.395677
longitude: -75.692195
accuracy: 12
views: 224
interestingness: 80 out of 234

photo: 34072507 d7e4f55372 22
owner: 19694928@N00
title: Tulip Tree
originalsecret: d7e4f55372
originalformat: jpg
o_height: null
o_width: null
datetaken: 2001-11-04 12:37:24
dateupload: 1124068243
tags: nature niagarapeninsula ontario trees flowers landscape carolinianforest watershed
license: 0
latitude: 43.041982
longitude: -79.299230
accuracy: 13
views: 229
interestingness: 81 out of 234

photo: 43465911 d9805cca5f 32
owner: 49598345@N00
title: tulip1
originalsecret: d9805cca5f
originalformat: jpg
o_height: null
o_width: null
datetaken: 2005-09-15 09:42:29
dateupload: 1126766549
tags: tulip flower
license: 4
latitude: 40.432314
longitude: -79.940986
accuracy: 11
views: 149
interestingness: 82 out of 234

photo: 35237724 01fb0757d8 29
owner: 29151782@N00
title: Plaza Tulips
originalsecret: 01fb0757d8
originalformat: jpg
o_height: null
o_width: null
datetaken: 2005-05-25 21:40:12
dateupload: 1124419555
tags: vacation plant flower flora europe honeymoon tulips sweden stockholm
license: 0
latitude: 59.333714
longitude: 18.067188
accuracy: 12
views: 52
interestingness: 83 out of 234

photo: 44869285 91372c015d 28
owner: 56126478@N00
title: Holland 2005  Tulip Farm Flower
originalsecret: 91372c015d
originalformat: jpg
o_height: null
o_width: null
datetaken: 2005-09-19 21:39:24
dateupload: 1127180364
tags: holland michigan tulip tulips flower flowers plant plants garden
license: 0
latitude: 42.841206
longitude: -86.098533
accuracy: 16
views: 484
interestingness: 84 out of 234

photo: 74074612 2a5b679965 42
owner: 40975043@N00
title: tree with orange flowers
originalsecret: 2a5b679965
originalformat: jpg
o_height: 375
o_width: 500
datetaken: 2005-12-16 11:10:31
dateupload: 1134728067
tags: sky orange tree hongkong sunny ?? africantuliptree
license: 0
latitude: 22.428007
longitude: 114.236783
accuracy: 12
views: 553
interestingness: 85 out of 234

photo: 56228015 ad24295c44 25
owner: 50457550@N00
title: three tulips
originalsecret: ad24295c44
originalformat: jpg
o_height: 1751
o_width: 2627
datetaken: 2005-09-21 13:13:54
dateupload: 1130310199
tags: berkeley california flowers wood colour tulip
license: 5
latitude: 37.867908
longitude: -122.257232
accuracy: 16
views: 244
interestingness: 86 out of 234

photo: 63079051 905f4f8af4 33
owner: 40077210@N00
title: Tulip
originalsecret: 905f4f8af4
originalformat: jpg
o_height: null
o_width: null
datetaken: 2005-11-13 23:08:32
dateupload: 1131941465
tags: newyorkcity flower tulip sakuramatsuri brooklynbontanicgarden ef28135is
license: 3
latitude: 40.659350
longitude: -73.966741
accuracy: 12
views: 392
interestingness: 87 out of 234

photo: 44866403 e2d38f794b 24
owner: 56126478@N00
title: Holland 2005  Tulip Farm Flower
originalsecret: e2d38f794b
originalformat: jpg
o_height: null
o_width: null
datetaken: 2005-09-19 21:28:51
dateupload: 1127179731
tags: holland michigan tulip tulips flower flowers plant plants garden
license: 0
latitude: 42.841300
longitude: -86.098254
accuracy: 16
views: 566
interestingness: 88 out of 234

photo: 51154306 20a68a8c99 26
owner: 51901209@N00
title: tulips
originalsecret: 20a68a8c99
originalformat: jpg
o_height: null
o_width: null
datetaken: 2005-10-08 13:00:56
dateupload: 1128943630
tags: canberra floriade tulips purple flowers
license: 2
latitude: -35.308541
longitude: 149.128417
accuracy: 12
views: 118
interestingness: 89 out of 234

photo: 53265315 3f934164b4 28
owner: 83863469@N00
title: Flower Bowl
originalsecret: 3f934164b4
originalformat: jpg
o_height: null
o_width: null
datetaken: 2005-08-26 19:12:37
dateupload: 1129522814
tags: trip viaje flowers red vacation argentina buenosaires tulips olympus bowl vacaciones
license: 1
latitude: -34.574429
longitude: -58.425292
accuracy: 6
views: 188
interestingness: 90 out of 234

photo: 35115177 713544462a 23
owner: 77211894@N00
title: tulip inn little palace
originalsecret: 713544462a
originalformat: jpg
o_height: 1280
o_width: 960
datetaken: 2004-03-24 13:39:43
dateupload: 1124386362
tags: paris hotelview
license: 2
latitude: 48.867382
longitude: 2.354319
accuracy: 12
views: 253
interestingness: 91 out of 234

photo: 47390138 ecd9e527a2 33
owner: 76361453@N00
title: tulips
originalsecret: null
originalformat: null
o_height: null
o_width: null
datetaken: 2005-01-03 20:02:13
dateupload: 1127903433
tags: 
license: 0
latitude: 52.373686
longitude: 4.893550
accuracy: 13
views: 55
interestingness: 92 out of 234

photo: 53051526 4f5c34b503 24
owner: 60849961@N00
title: tulips
originalsecret: 4f5c34b503
originalformat: jpg
o_height: null
o_width: null
datetaken: 2005-01-22 14:35:21
dateupload: 1129484913
tags: flowers tulips pink
license: 3
latitude: 30.282361
longitude: -97.696148
accuracy: 16
views: 125
interestingness: 93 out of 234

photo: 53051223 cc7fdf0743 25
owner: 60849961@N00
title: tulips
originalsecret: cc7fdf0743
originalformat: jpg
o_height: null
o_width: null
datetaken: 2005-01-22 14:34:59
dateupload: 1129484867
tags: flowers tulips pink
license: 3
latitude: 30.282361
longitude: -97.696148
accuracy: 16
views: 101
interestingness: 94 out of 234

photo: 958269733 efe6e8fa06 1425
owner: 60704112@N00
title: tesselaar tulips 077
originalsecret: fe5ecc15ff
originalformat: jpg
o_height: 600
o_width: 800
datetaken: 2005-09-24 14:36:48
dateupload: 1130140460
tags: 2005 rc
license: 0
latitude: -37.794592
longitude: 144.942626
accuracy: 8
views: 32
interestingness: 95 out of 234

photo: 48676168 9ee0c939fd 31
owner: 67566398@N00
title: Tulips!  Run!
originalsecret: 9ee0c939fd
originalformat: jpg
o_height: null
o_width: null
datetaken: 2005-10-02 17:48:10
dateupload: 1128274617
tags: tulips amsterdam chinese festival museumplein
license: 0
latitude: 52.357124
longitude: 4.880161
accuracy: 14
views: 221
interestingness: 96 out of 234

photo: 59636918 944d425d6b 32
owner: 99815841@N00
title: palette
originalsecret: null
originalformat: null
o_height: null
o_width: null
datetaken: 2005-11-04 03:12:57
dateupload: 1131095719
tags: flowers tulips
license: 0
latitude: 44.982406
longitude: -93.270433
accuracy: 16
views: 97
interestingness: 97 out of 234

photo: 959122398 dfa439f4a3 1117
owner: 60704112@N00
title: tesselaar tulips 079
originalsecret: b813d92f6f
originalformat: jpg
o_height: 600
o_width: 800
datetaken: 2005-09-24 14:38:49
dateupload: 1130140462
tags: 2005 rc
license: 0
latitude: -37.794592
longitude: 144.942626
accuracy: 8
views: 26
interestingness: 98 out of 234

photo: 958269225 634907f9e4 1237
owner: 60704112@N00
title: tesselaar tulips 029
originalsecret: 3e303a988f
originalformat: jpg
o_height: 600
o_width: 800
datetaken: 2005-09-24 13:42:44
dateupload: 1130140452
tags: 2005 rc
license: 0
latitude: -37.794592
longitude: 144.942626
accuracy: 8
views: 29
interestingness: 99 out of 234

photo: 959122078 8cfdee7f83 1219
owner: 60704112@N00
title: tesselaar tulips 074
originalsecret: 870a779cb2
originalformat: jpg
o_height: 600
o_width: 800
datetaken: 2005-09-24 14:33:10
dateupload: 1130140457
tags: 2005 rc
license: 0
latitude: -37.794592
longitude: 144.942626
accuracy: 8
views: 24
interestingness: 100 out of 234

photo: 959121880 7602a87424 1304
owner: 60704112@N00
title: tesselaar tulips 045
originalsecret: d0e44fa954
originalformat: jpg
o_height: 600
o_width: 800
datetaken: 2005-09-24 13:48:30
dateupload: 1130140455
tags: 2005 rc
license: 0
latitude: -37.794592
longitude: 144.942626
accuracy: 8
views: 24
interestingness: 101 out of 234

photo: 39260270 42a2d20c42 27
owner: 40279823@N00
title: Charles with tulips, Wadi Rum
originalsecret: 42a2d20c42
originalformat: jpg
o_height: 960
o_width: 1280
datetaken: 2005-08-31 19:03:44
dateupload: 1125593824
tags: desert wadirum middleeast east jordan rum middle wadi levant middenoosten hashemitekingdom
license: 1
latitude: 29.632487
longitude: 35.064067
accuracy: 12
views: 505
interestingness: 102 out of 234

photo: 59771869 058a0c0678 31
owner: 19447883@N00
title: tulips
originalsecret: 058a0c0678
originalformat: jpg
o_height: null
o_width: null
datetaken: 2005-11-04 11:02:52
dateupload: 1131130972
tags: friedl aigner 56friedl friedlaigner friedlgraphicdesign
license: 2
latitude: 48.247997
longitude: 16.390202
accuracy: 12
views: 31
interestingness: 103 out of 234

photo: 48423281 857b91dd9f 27
owner: 33953321@N00
title: Floriade
originalsecret: 857b91dd9f
originalformat: jpg
o_height: 1067
o_width: 800
datetaken: 2005-10-01 13:08:27
dateupload: 1128209588
tags: australia act pc2601 canberra floriade flowers
license: 0
latitude: -35.288296
longitude: 149.129104
accuracy: 13
views: 259
interestingness: 104 out of 234

photo: 53046561 76fe3e0457 26
owner: 60849961@N00
title: tulips
originalsecret: 76fe3e0457
originalformat: jpg
o_height: null
o_width: null
datetaken: 2005-01-22 14:30:30
dateupload: 1129484084
tags: pink flowers tulips utatafeature wcshart2007
license: 3
latitude: 30.282361
longitude: -97.696148
accuracy: 16
views: 224
interestingness: 105 out of 234

photo: 39869154 f1403ce753 28
owner: 40588894@N00
title: Tulipanes tomando el sol en la terraza
originalsecret: f1403ce753
originalformat: jpg
o_height: null
o_width: null
datetaken: 2005-04-04 12:31:00
dateupload: 1125772042
tags: tulipanes tulipan tulip rojo red flores flowers fleurs loreak
license: 0
latitude: 39.420049
longitude: -0.496020
accuracy: 16
views: 605
interestingness: 106 out of 234

photo: 78418252 0f09b51fa0 38
owner: 95589611@N00
title: F1020009
originalsecret: 0f09b51fa0
originalformat: jpg
o_height: null
o_width: null
datetaken: 2005-06-09 20:42:19
dateupload: 1135765460
tags: israel view papaver red flower
license: 0
latitude: 31.222343
longitude: 34.522562
accuracy: 12
views: 37
interestingness: 107 out of 234

photo: 50196382 ff3d21f583 31
owner: 85203597@N00
title: flowers-red
originalsecret: ff3d21f583
originalformat: jpg
o_height: null
o_width: null
datetaken: 2005-10-07 21:50:56
dateupload: 1128685856
tags: 
license: 0
latitude: -35.289627
longitude: 149.135799
accuracy: 12
views: 123
interestingness: 108 out of 234

photo: 74074611 79c6bfda96 38
owner: 40975043@N00
title: tree with orange flowers
originalsecret: 79c6bfda96
originalformat: jpg
o_height: 365
o_width: 500
datetaken: 2005-12-16 11:09:59
dateupload: 1134728066
tags: sky orange tree hongkong ?? blooming africantuliptree
license: 0
latitude: 22.428007
longitude: 114.236783
accuracy: 12
views: 485
interestingness: 109 out of 234

photo: 69697885 e1141c1e3a 15
owner: 12517086@N00
title: Fields of Fire
originalsecret: e1141c1e3a
originalformat: jpg
o_height: null
o_width: null
datetaken: 2003-12-21 11:56:45
dateupload: 1133626190
tags: brisbane queensland australia park
license: 0
latitude: -27.475075
longitude: 153.030624
accuracy: 12
views: 57
interestingness: 110 out of 234

photo: 47632595 364fe102b1 27
owner: 99815841@N00
title: spring tulips
originalsecret: null
originalformat: null
o_height: null
o_width: null
datetaken: 2005-09-29 00:30:09
dateupload: 1127972763
tags: minneapolis uptown flowers tulips
license: 0
latitude: 44.957919
longitude: -93.294090
accuracy: 16
views: 110
interestingness: 111 out of 234

photo: 83968502 90ab98e7ab 38
owner: 48242731@N00
title: 37
originalsecret: cf075e5a34
originalformat: jpg
o_height: null
o_width: null
datetaken: 2004-01-02 07:21:45
dateupload: 1136749625
tags: scotland flora standrews
license: 0
latitude: 56.341513
longitude: -2.795097
accuracy: 16
views: 20
interestingness: 112 out of 234

photo: 40753886 e4f6e792f1 32
owner: 40588894@N00
title: Tulip?n multicolor
originalsecret: e4f6e792f1
originalformat: jpg
o_height: null
o_width: null
datetaken: 2005-04-09 19:07:30
dateupload: 1125993913
tags: tulipan tulip flores flowers fleurs loreak
license: 0
latitude: 39.420049
longitude: -0.496020
accuracy: 16
views: 270
interestingness: 113 out of 234

photo: 45147810 a338c83b86 28
owner: 51035667413@N01
title: park2
originalsecret: null
originalformat: null
o_height: null
o_width: null
datetaken: 2004-05-15 10:35:38
dateupload: 1127257447
tags: chicago spring tulips pinhole grantpark
license: 0
latitude: 41.883093
longitude: -87.623659
accuracy: 16
views: 16
interestingness: 114 out of 234

photo: 42281939 ad754397ff 33
owner: 40391711@N00
title: Uber Dutch Tulip
originalsecret: ad754397ff
originalformat: jpg
o_height: null
o_width: null
datetaken: 2005-05-11 12:30:56
dateupload: 1126442752
tags: orange tulip flower nature dutch holland keukenhof spring lisse noordholland thenetherlands
license: 3
latitude: 52.258806
longitude: 4.558467
accuracy: 12
views: 422
interestingness: 115 out of 234

photo: 32606857 5f8b7d14b5 22
owner: 87242149@N00
title: Boston's Springtime Tulips
originalsecret: 5f8b7d14b5
originalformat: jpg
o_height: null
o_width: null
datetaken: 2005-08-09 07:31:37
dateupload: 1123597897
tags: city boston garden tulips sightseeing newengland bostonma bostoncommon springtime bostonpublicgarden bostonflowers bostonmass gobostoncard springboston
license: 5
latitude: 42.353939
longitude: -71.070922
accuracy: 15
views: 1121
interestingness: 116 out of 234

photo: 32606847 2200388af9 23
owner: 87242149@N00
title: Cherry Blossoms in the Public Garden, Boston
originalsecret: 2200388af9
originalformat: jpg
o_height: null
o_width: null
datetaken: 2005-08-09 07:31:34
dateupload: 1123597894
tags: city flowers trees boston garden spring tulips sightseeing newengland cherryblossoms bostonma bostoncommon publicgarden citygarden springtim bostonmass gobostoncard springboston
license: 5
latitude: 42.353939
longitude: -71.070922
accuracy: 15
views: 2948
interestingness: 117 out of 234

photo: 64416823 ec00484541 28
owner: 33399582@N00
title: Carmel Ca Mission Nov05 _10 (2)
originalsecret: null
originalformat: null
o_height: null
o_width: null
datetaken: 2005-11-09 10:47:02
dateupload: 1132298703
tags: carmel california mission flower
license: 0
latitude: 36.541536
longitude: -121.918673
accuracy: 15
views: 152
interestingness: 118 out of 234

photo: 43349143 41a7385c96 26
owner: 43495584@N00
title: 
originalsecret: 41a7385c96
originalformat: jpg
o_height: null
o_width: null
datetaken: 2005-04-18 07:36:32
dateupload: 1126729853
tags: paris france flower jardin tulip tuileries
license: 0
latitude: 48.866973
longitude: 2.335968
accuracy: 16
views: 11
interestingness: 119 out of 234

photo: 34209590 c00a72713b 23
owner: 43871217@N00
title: Red Intruders
originalsecret: c00a72713b
originalformat: jpg
o_height: 2608
o_width: 1952
datetaken: 2005-05-14 16:28:36
dateupload: 1124112754
tags: ottawa tulip 2005 flower
license: 3
latitude: 45.395677
longitude: -75.692195
accuracy: 12
views: 185
interestingness: 120 out of 234

photo: 67052408 b082a934cf 32
owner: 85543821@N00
title: Toolip
originalsecret: null
originalformat: null
o_height: null
o_width: null
datetaken: 2005-04-03 17:18:08
dateupload: 1132998001
tags: flower albuquerque tulip nm joeldeluxe
license: 0
latitude: 35.013904
longitude: -106.696257
accuracy: 16
views: 91
interestingness: 121 out of 234

photo: 1185502245 2a5f16f276 1042
owner: 89095523@N00
title: 2004_0331Image0014
originalsecret: null
originalformat: null
o_height: null
o_width: null
datetaken: 2004-03-31 18:27:22
dateupload: 1132798392
tags: floral
license: 0
latitude: 39.041611
longitude: -94.592843
accuracy: 15
views: 44
interestingness: 122 out of 234

photo: 1186360008 8e04c2aa51 1042
owner: 89095523@N00
title: 2004_0405Image0017
originalsecret: null
originalformat: null
o_height: null
o_width: null
datetaken: 2004-04-05 17:16:07
dateupload: 1132798406
tags: floral
license: 0
latitude: 39.051318
longitude: -94.588744
accuracy: 16
views: 22
interestingness: 123 out of 234

photo: 64460259 1448c6566e 32
owner: 77805891@N00
title: Incense
originalsecret: 1448c6566e
originalformat: jpg
o_height: null
o_width: null
datetaken: 2005-05-21 11:25:05
dateupload: 1132316648
tags: 2005 trip vacation holiday southeastasia vietnam hue
license: 0
latitude: 16.472962
longitude: 107.569198
accuracy: 10
views: 48
interestingness: 124 out of 234

photo: 50748863 d3c733f775 31
owner: 44828985@N00
title: New York - Central Park
originalsecret: null
originalformat: null
o_height: null
o_width: null
datetaken: 2005-04-25 04:03:29
dateupload: 1128859892
tags: newyork centralpark flowers
license: 0
latitude: 40.979898
longitude: -74.882812
accuracy: 2
views: 55
interestingness: 125 out of 234

photo: 43465912 6cd1194117 30
owner: 49598345@N00
title: tulip2
originalsecret: 6cd1194117
originalformat: jpg
o_height: null
o_width: null
datetaken: 2005-09-15 09:42:29
dateupload: 1126766549
tags: tulip flower
license: 4
latitude: 40.436103
longitude: -79.941329
accuracy: 11
views: 130
interestingness: 126 out of 234

photo: 59055522 9503663ecd 29
owner: 50292215@N00
title: White Tulip Hostel
originalsecret: 9503663ecd
originalformat: jpg
o_height: 1600
o_width: 1200
datetaken: 2005-10-27 10:16:48
dateupload: 1130959285
tags: amsterdam hostel
license: 0
latitude: 52.372035
longitude: 4.894237
accuracy: 12
views: 193
interestingness: 127 out of 234

photo: 1185505775 95041ad8e6 1331
owner: 89095523@N00
title: springTT
originalsecret: null
originalformat: null
o_height: null
o_width: null
datetaken: 2003-04-10 11:18:45
dateupload: 1132799095
tags: floral
license: 0
latitude: 39.045419
longitude: -94.581127
accuracy: 13
views: 22
interestingness: 128 out of 234

photo: 38993849 00916219fe 23
owner: 64829840@N00
title: Tulipani alla finestra
originalsecret: null
originalformat: null
o_height: null
o_width: null
datetaken: 2005-08-31 22:53:53
dateupload: 1125521633
tags: italy window tulips tuscanypienza
license: 0
latitude: 43.082053
longitude: 11.675033
accuracy: 11
views: 95
interestingness: 129 out of 234

photo: 34209588 1aa6a90fdc 23
owner: 43871217@N00
title: Peaches and Cream
originalsecret: 1aa6a90fdc
originalformat: jpg
o_height: 1952
o_width: 2608
datetaken: 2005-05-14 15:31:01
dateupload: 1124112754
tags: 2005 flower ottawa tulip schmap
license: 3
latitude: 45.395677
longitude: -75.692195
accuracy: 12
views: 216
interestingness: 130 out of 234

photo: 84183204 fdb6186535 41
owner: 42872607@N00
title: Tulip
originalsecret: fdb6186535
originalformat: jpg
o_height: 2272
o_width: 1704
datetaken: 2005-05-08 15:32:29
dateupload: 1136777587
tags: ny flower canon tulip statenisland s45 snugharbor
license: 3
latitude: 40.645324
longitude: -74.104904
accuracy: 15
views: 58
interestingness: 131 out of 234

photo: 50072893 e4a5d1b8eb 33
owner: 20733661@N00
title: Tulips
originalsecret: e4a5d1b8eb
originalformat: jpg
o_height: null
o_width: null
datetaken: 2005-05-16 11:58:48
dateupload: 1128642121
tags: switzerland gimmelwald europe
license: 0
latitude: 46.546465
longitude: 7.898654
accuracy: 12
views: 43
interestingness: 132 out of 234

photo: 50072899 e8ec8e10b5 24
owner: 20733661@N00
title: Tulips
originalsecret: e8ec8e10b5
originalformat: jpg
o_height: null
o_width: null
datetaken: 2005-05-16 12:10:56
dateupload: 1128642123
tags: switzerland gimmelwald europe
license: 0
latitude: 46.546465
longitude: 7.898654
accuracy: 12
views: 62
interestingness: 133 out of 234

photo: 62931320 dec21f999c 27
owner: 43661283@N00
title: Tulip in cherries
originalsecret: dec21f999c
originalformat: jpg
o_height: 1488
o_width: 1984
datetaken: 2003-05-10 17:51:44
dateupload: 1131917323
tags: flower tulip cherry
license: 1
latitude: 45.406434
longitude: -75.678806
accuracy: 14
views: 166
interestingness: 134 out of 234

photo: 53968729 0a4042fc50 32
owner: 92237387@N00
title: Tulip
originalsecret: 0a4042fc50
originalformat: jpg
o_height: 1704
o_width: 2272
datetaken: 2004-05-16 14:38:37
dateupload: 1129707672
tags: flowers tulip
license: 1
latitude: 51.100738
longitude: -114.182487
accuracy: 15
views: 35
interestingness: 135 out of 234

photo: 53968903 6e9f0eff59 32
owner: 92237387@N00
title: Tulip
originalsecret: 6e9f0eff59
originalformat: jpg
o_height: 1704
o_width: 2272
datetaken: 2004-05-16 14:40:27
dateupload: 1129707740
tags: flowers tulip
license: 1
latitude: 51.100738
longitude: -114.182487
accuracy: 15
views: 28
interestingness: 136 out of 234

photo: 1840960377 75db34b8fe 2403
owner: 17515167@N05
title: Flowering African Tulip Tree at Vida Del Mar
originalsecret: 096ad89041
originalformat: jpg
o_height: 1200
o_width: 1600
datetaken: 2007-11-03 05:18:07
dateupload: 1135483696
tags: mexico colima manzanillo
license: 0
latitude: 19.106963
longitude: -104.408504
accuracy: 16
views: 30
interestingness: 137 out of 234

photo: 56146981 4abad1e8da 31
owner: 11737794@N00
title: Tulips
originalsecret: null
originalformat: null
o_height: null
o_width: null
datetaken: 2004-06-05 20:28:46
dateupload: 1130290298
tags: toronto downtown flowers spring
license: 0
latitude: 43.650717
longitude: -79.369783
accuracy: 15
views: 55
interestingness: 138 out of 234

photo: 56864550 2f576ed69c 27
owner: 51035756584@N01
title: View from a hotel room
originalsecret: 2f576ed69c
originalformat: jpg
o_height: 480
o_width: 640
datetaken: 2005-10-28 15:03:16
dateupload: 1130504596
tags: euroia2005 hotel brussels belgium brussel belgie plaze53c33c7b51a5afe1fc2d0fcaa14adc44 euroiasummit2005 geolong435582 geolat508644 geotagged plazes
license: 4
latitude: 50.864400
longitude: 4.355820
accuracy: 16
views: 237
interestingness: 139 out of 234

photo: 40753885 fd28e4aeec 22
owner: 40588894@N00
title: Tulip?n multicolor
originalsecret: fd28e4aeec
originalformat: jpg
o_height: null
o_width: null
datetaken: 2005-04-09 19:07:19
dateupload: 1125993913
tags: tulipan tulip flores flowers fleurs loreak
license: 0
latitude: 39.420049
longitude: -0.496020
accuracy: 16
views: 307
interestingness: 140 out of 234

photo: 39480647 1fded9ffa6 33
owner: 49041755@N00
title: Tulpe
originalsecret: 1fded9ffa6
originalformat: jpg
o_height: null
o_width: null
datetaken: 2005-09-02 10:33:24
dateupload: 1125650004
tags: red flower tulip dynax ramona weram
license: 0
latitude: 50.897619
longitude: 13.991432
accuracy: 11
views: 170
interestingness: 141 out of 234

photo: 39869153 3165c79e2c 22
owner: 40588894@N00
title: Tulip?n rojo con una gota de agua
originalsecret: 3165c79e2c
originalformat: jpg
o_height: null
o_width: null
datetaken: 2005-04-04 12:28:03
dateupload: 1125772042
tags: tulipanes tulipan tulip rojo red flores flowers fleurs loreak
license: 0
latitude: 39.420049
longitude: -0.496020
accuracy: 16
views: 306
interestingness: 142 out of 234

photo: 74899793 d823b1be29 6
owner: 73577789@N00
title: tulips
originalsecret: null
originalformat: null
o_height: null
o_width: null
datetaken: 2005-12-18 23:22:25
dateupload: 1134940945
tags: tulip red yellow
license: 0
latitude: 41.176086
longitude: 28.994185
accuracy: 16
views: 82
interestingness: 143 out of 234

photo: 71963836 6a3cefd2e5 20
owner: 77844217@N00
title: Tulip Inn Ten Cate Emmen
originalsecret: null
originalformat: null
o_height: null
o_width: null
datetaken: 1999-04-25 09:00:00
dateupload: 1134189287
tags: 1999 holland emmen tulipinn tulipinntencateemmen hotel street netherlands outside film
license: 0
latitude: 52.775222
longitude: 6.892220
accuracy: 16
views: 394
interestingness: 144 out of 234

photo: 62004988 91c0eefc1c 31
owner: 82214664@N00
title: The parents at the Norfolk Botanical Gardens
originalsecret: null
originalformat: null
o_height: null
o_width: null
datetaken: 2005-05-08 15:06:35
dateupload: 1131667962
tags: virginia azaleas tulips norfolk posed norfolkbotanicalgardens
license: 0
latitude: 36.904607
longitude: -76.202545
accuracy: 13
views: 18
interestingness: 145 out of 234

photo: 64803770 28d5a25582 24
owner: 96614222@N00
title: Tulips in Peace Park, Hiroshima
originalsecret: null
originalformat: null
o_height: null
o_width: null
datetaken: 2005-04-17 15:50:30
dateupload: 1132418998
tags: 
license: 0
latitude: 34.395578
longitude: 132.429199
accuracy: 8
views: 35
interestingness: 146 out of 234

photo: 56977107 529b362966 30
owner: 49503007257@N01
title: tulips
originalsecret: null
originalformat: null
o_height: null
o_width: null
datetaken: 2005-10-28 14:04:37
dateupload: 1130533683
tags: shozu nokia cellphone mobile
license: 0
latitude: 37.417652
longitude: -122.025318
accuracy: 16
views: 56
interestingness: 147 out of 234

photo: 56864547 2e243bb10a 32
owner: 51035756584@N01
title: View from a hotel room
originalsecret: 2e243bb10a
originalformat: jpg
o_height: 480
o_width: 640
datetaken: 2005-10-28 15:03:14
dateupload: 1130504594
tags: euroia2005 hotel brussels belgium brussel belgie plaze53c33c7b51a5afe1fc2d0fcaa14adc44 euroiasummit2005 geolong435582 geolat508644 geotagged plazes
license: 4
latitude: 50.864400
longitude: 4.355820
accuracy: 16
views: 181
interestingness: 148 out of 234

photo: 39869152 0f4c24c919 23
owner: 40588894@N00
title: Tulip?n rojo
originalsecret: 0f4c24c919
originalformat: jpg
o_height: null
o_width: null
datetaken: 2005-04-04 12:26:27
dateupload: 1125772042
tags: tulipanes tulipan tulip rojo red flores flowers fleurs loreak
license: 0
latitude: 39.420049
longitude: -0.496020
accuracy: 16
views: 324
interestingness: 149 out of 234

photo: 34209592 abe8a73164 23
owner: 43871217@N00
title: HPIM0051
originalsecret: abe8a73164
originalformat: jpg
o_height: 2608
o_width: 1952
datetaken: 2005-05-14 16:40:01
dateupload: 1124112755
tags: 2005 flower ottawa tulip schmap
license: 3
latitude: 45.395677
longitude: -75.692195
accuracy: 12
views: 130
interestingness: 150 out of 234

photo: 72559764 ce35c02d9f 20
owner: 49503152375@N01
title: The Playhouse
originalsecret: ce35c02d9f
originalformat: jpg
o_height: null
o_width: null
datetaken: 2001-01-01 00:00:52
dateupload: 1134341075
tags: tulipfest albany
license: 1
latitude: 42.656749
longitude: -73.770360
accuracy: 13
views: 27
interestingness: 151 out of 234

photo: 84183408 3d44bae2c8 43
owner: 42872607@N00
title: Tulip
originalsecret: 3d44bae2c8
originalformat: jpg
o_height: 1374
o_width: 1834
datetaken: 2005-05-08 15:37:33
dateupload: 1136777609
tags: ny flower canon tulip statenisland s45 snugharbor
license: 3
latitude: 40.645324
longitude: -74.104904
accuracy: 15
views: 92
interestingness: 152 out of 234

photo: 78441825 ae5dee4d62 37
owner: 41867887@N00
title: agv
originalsecret: ae5dee4d62
originalformat: jpg
o_height: 450
o_width: 325
datetaken: 2005-12-28 09:25:42
dateupload: 1135772742
tags: sampa brasil brazil saopaulo urban daily city cotidiano
license: 3
latitude: -23.550139
longitude: -46.635074
accuracy: 12
views: 13
interestingness: 153 out of 234

photo: 61947352 c782d6a882 25
owner: 96947578@N00
title: Tulips, Candy, Cookies
originalsecret: null
originalformat: null
o_height: null
o_width: null
datetaken: 2005-11-07 13:30:43
dateupload: 1131653041
tags: knowledgeboard kcceurope kcceuropefringe knowledgeboardfringe
license: 0
latitude: 52.338225
longitude: 4.870119
accuracy: 15
views: 62
interestingness: 154 out of 234

photo: 34209591 1f85ab9c9b 23
owner: 43871217@N00
title: HPIM0034
originalsecret: 1f85ab9c9b
originalformat: jpg
o_height: 1952
o_width: 2608
datetaken: 2005-05-14 16:19:55
dateupload: 1124112754
tags: ottawa tulip 2005 flower
license: 3
latitude: 45.395677
longitude: -75.692195
accuracy: 12
views: 146
interestingness: 155 out of 234

photo: 69198786 e89998a77e 9
owner: 45277502@N00
title: Tulips in Angers, FR
originalsecret: null
originalformat: null
o_height: null
o_width: null
datetaken: 2005-04-08 07:36:06
dateupload: 1133485871
tags: 
license: 0
latitude: 47.477389
longitude: -0.564765
accuracy: 10
views: 133
interestingness: 156 out of 234

photo: 34209589 d6a02711b2 21
owner: 43871217@N00
title: HPIM0048
originalsecret: d6a02711b2
originalformat: jpg
o_height: 1952
o_width: 2608
datetaken: 2005-05-14 16:38:50
dateupload: 1124112754
tags: ottawa tulip 2005 flower
license: 3
latitude: 45.395677
longitude: -75.692195
accuracy: 12
views: 124
interestingness: 157 out of 234

photo: 48238921 bd9eaaa301 31
owner: 33953321@N00
title: Red tulips
originalsecret: bd9eaaa301
originalformat: jpg
o_height: 1067
o_width: 800
datetaken: 2005-10-01 15:38:58
dateupload: 1128165680
tags: australia act pc2601 canberra floriade flowers tulips
license: 0
latitude: -35.288296
longitude: 149.129104
accuracy: 13
views: 356
interestingness: 158 out of 234

photo: 44416700 4ff32c0cce 31
owner: 42641173@N00
title: Rusted Tulip
originalsecret: null
originalformat: null
o_height: null
o_width: null
datetaken: 2005-09-18 16:01:43
dateupload: 1127073703
tags: rust rusted flower tulip
license: 0
latitude: 35.583617
longitude: -77.369563
accuracy: 16
views: 181
interestingness: 159 out of 234

photo: 51154307 46342adc64 26
owner: 51901209@N00
title: shadow
originalsecret: 46342adc64
originalformat: jpg
o_height: null
o_width: null
datetaken: 2005-10-08 13:06:24
dateupload: 1128943630
tags: canberra floriade tulips shadow flowers
license: 2
latitude: -35.308541
longitude: 149.128417
accuracy: 12
views: 58
interestingness: 160 out of 234

photo: 55953421 3c893280df 24
owner: 10662215@N00
title: VanEeden5a
originalsecret: 3c893280df
originalformat: jpg
o_height: 1920
o_width: 2560
datetaken: 2005-10-25 23:25:58
dateupload: 1130246758
tags: tulips invercargill new zealand spring
license: 0
latitude: -46.371213
longitude: 168.440752
accuracy: 12
views: 113
interestingness: 161 out of 234

photo: 67624335 7e5789a34c 29
owner: 63862882@N00
title: bulbos
originalsecret: null
originalformat: null
o_height: null
o_width: null
datetaken: 2005-07-22 14:08:46
dateupload: 1133128542
tags: amsterdam flowers photoshop tulip viajes
license: 0
latitude: 52.360715
longitude: 4.879302
accuracy: 10
views: 98
interestingness: 162 out of 234

photo: 84183598 c8776562b0 36
owner: 42872607@N00
title: Tulips
originalsecret: c8776562b0
originalformat: jpg
o_height: 854
o_width: 1139
datetaken: 2005-05-08 15:41:49
dateupload: 1136777631
tags: ny flower canon tulip statenisland s45 snugharbor
license: 3
latitude: 40.645324
longitude: -74.104904
accuracy: 15
views: 73
interestingness: 163 out of 234

photo: 84175780 eb89fc22cf 40
owner: 42872607@N00
title: Tulips
originalsecret: eb89fc22cf
originalformat: jpg
o_height: 1704
o_width: 2272
datetaken: 2005-05-08 15:42:20
dateupload: 1136776746
tags: ny flower canon tulip statenisland s45 snugharbor
license: 3
latitude: 40.645324
longitude: -74.104904
accuracy: 15
views: 94
interestingness: 164 out of 234

photo: 61947301 f7f93361af 27
owner: 96947578@N00
title: Tulips, Candy, Cookies
originalsecret: null
originalformat: null
o_height: null
o_width: null
datetaken: 2005-11-07 13:30:37
dateupload: 1131653029
tags: knowledgeboard kcceurope kcceuropefringe knowledgeboardfringe
license: 0
latitude: 52.338225
longitude: 4.870119
accuracy: 15
views: 62
interestingness: 165 out of 234

photo: 71315755 84a0aa73ef 34
owner: 45995198@N00
title: DSC00824
originalsecret: 84a0aa73ef
originalformat: jpg
o_height: 1280
o_width: 960
datetaken: 2005-12-07 14:36:10
dateupload: 1134001943
tags: fitr furniturethemusical flower
license: 0
latitude: 30.353388
longitude: -97.730770
accuracy: 15
views: 14
interestingness: 166 out of 234

photo: 64999767 45fd19294c 30
owner: 95157450@N00
title: tulip chairs | slc airport
originalsecret: 45fd19294c
originalformat: jpg
o_height: 600
o_width: 800
datetaken: 2005-11-20 19:27:27
dateupload: 1132470562
tags: utah parkcity airport chair design
license: 1
latitude: 40.639683
longitude: -111.498785
accuracy: 12
views: 301
interestingness: 167 out of 234

photo: 64999776 a71c0d2e1f 28
owner: 95157450@N00
title: original tulip chairs | slc airport
originalsecret: a71c0d2e1f
originalformat: jpg
o_height: 800
o_width: 600
datetaken: 2005-11-20 19:27:59
dateupload: 1132470569
tags: utah parkcity airport chair design
license: 1
latitude: 40.639683
longitude: -111.498785
accuracy: 12
views: 266
interestingness: 168 out of 234

photo: 58619651 d804543a23 24
owner: 46162062@N00
title: Tiptoe through the tulip skirts
originalsecret: d804543a23
originalformat: jpg
o_height: 1944
o_width: 2592
datetaken: 2005-05-01 00:00:00
dateupload: 1130870449
tags: france water shopping cannes accident puddles monoprix
license: 2
latitude: 43.553516
longitude: 7.017978
accuracy: 16
views: 238
interestingness: 169 out of 234

photo: 89877271 8634a67fd7 26
owner: 29393546@N00
title: pict3063
originalsecret: 8634a67fd7
originalformat: jpg
o_height: 1920
o_width: 2560
datetaken: 2005-05-02 11:29:32
dateupload: 1133481609
tags: flickrfs england uk wiltshire salisbury mompessonhouse nationaltrust
license: 0
latitude: 51.064378
longitude: -1.797809
accuracy: 12
views: 39
interestingness: 170 out of 234

photo: 51154308 18cadbd71a 32
owner: 51901209@N00
title: field of flowers
originalsecret: 18cadbd71a
originalformat: jpg
o_height: null
o_width: null
datetaken: 2005-10-08 13:21:42
dateupload: 1128943630
tags: canberra floriade flowers orange tulips pink
license: 2
latitude: -35.308541
longitude: 149.128417
accuracy: 12
views: 280
interestingness: 171 out of 234

photo: 53051383 6ea35c569e 24
owner: 60849961@N00
title: tulips
originalsecret: 6ea35c569e
originalformat: jpg
o_height: null
o_width: null
datetaken: 2005-01-22 14:33:18
dateupload: 1129484891
tags: flowers tulips pink
license: 3
latitude: 30.282361
longitude: -97.696148
accuracy: 16
views: 56
interestingness: 172 out of 234

photo: 84145887 335fd4fd4c 37
owner: 82943920@N00
title: Spring is here
originalsecret: null
originalformat: null
o_height: null
o_width: null
datetaken: 2005-06-11 23:01:33
dateupload: 1136772740
tags: chicago spring tulip
license: 0
latitude: 42.151059
longitude: -87.786512
accuracy: 13
views: 21
interestingness: 173 out of 234

photo: 72559610 4f7cbcaa04 20
owner: 49503152375@N01
title: The Playhouse
originalsecret: 4f7cbcaa04
originalformat: jpg
o_height: null
o_width: null
datetaken: 2001-01-01 00:00:31
dateupload: 1134341051
tags: tulipfest albany
license: 1
latitude: 42.656749
longitude: -73.770360
accuracy: 13
views: 29
interestingness: 174 out of 234

photo: 72559943 6c4043cf8d 35
owner: 49503152375@N01
title: Washington Park Bridge
originalsecret: 6c4043cf8d
originalformat: jpg
o_height: null
o_width: null
datetaken: 2001-01-01 00:01:47
dateupload: 1134341106
tags: tulipfest albany
license: 1
latitude: 42.656749
longitude: -73.770360
accuracy: 13
views: 32
interestingness: 175 out of 234

photo: 72559468 541ea59fda 20
owner: 49503152375@N01
title: The Washington Park Bridge
originalsecret: 541ea59fda
originalformat: jpg
o_height: null
o_width: null
datetaken: 2001-01-01 00:00:22
dateupload: 1134341028
tags: tulipfest albany
license: 1
latitude: 42.656749
longitude: -73.770360
accuracy: 13
views: 37
interestingness: 176 out of 234

photo: 72559509 404bd1c2ba 35
owner: 49503152375@N01
title: The Organ Grinder
originalsecret: 404bd1c2ba
originalformat: jpg
o_height: null
o_width: null
datetaken: 2001-01-01 00:00:25
dateupload: 1134341035
tags: tulipfest albany
license: 1
latitude: 42.656749
longitude: -73.770360
accuracy: 13
views: 40
interestingness: 177 out of 234

photo: 48469261 f7d1ba2403 27
owner: 33953321@N00
title: Tulipa Hamilton
originalsecret: f7d1ba2403
originalformat: jpg
o_height: 1067
o_width: 800
datetaken: 2005-10-01 14:28:31
dateupload: 1128221122
tags: australia act pc2601 canberra floriade flowers tulip
license: 0
latitude: -35.288296
longitude: 149.129104
accuracy: 13
views: 464
interestingness: 178 out of 234

photo: 51154304 a1a0190f60 28
owner: 51901209@N00
title: from above
originalsecret: a1a0190f60
originalformat: jpg
o_height: null
o_width: null
datetaken: 2005-10-08 12:32:52
dateupload: 1128943630
tags: canberra floriade tulips flowers
license: 2
latitude: -35.308541
longitude: 149.128417
accuracy: 12
views: 89
interestingness: 179 out of 234

photo: 52334845 330be0e09b 28
owner: 22421801@N00
title: Monaco
originalsecret: null
originalformat: null
o_height: null
o_width: null
datetaken: 2005-04-05 03:54:17
dateupload: 1129268107
tags: palms cotedazur tulips monaco tulip mediterraneanflowers
license: 0
latitude: 43.732720
longitude: 7.427251
accuracy: 16
views: 136
interestingness: 180 out of 234

photo: 52833817 d037aed92a 31
owner: 55977962@N00
title: P4054437
originalsecret: d037aed92a
originalformat: jpg
o_height: null
o_width: null
datetaken: 2005-04-05 15:50:59
dateupload: 1129426725
tags: flowers office
license: 0
latitude: 33.937440
longitude: -84.237214
accuracy: 16
views: 70
interestingness: 181 out of 234

photo: 37924552 5a474eef7a 33
owner: 51352384@N00
title: They have trees in Holland!
originalsecret: null
originalformat: null
o_height: null
o_width: null
datetaken: 2005-08-17 02:55:37
dateupload: 1125246516
tags: 2005europeanvacation holland biketrip
license: 0
latitude: 52.363231
longitude: 4.766349
accuracy: 11
views: 12
interestingness: 182 out of 234

photo: 74393870 979e5829d4 43
owner: 13021532@N00
title: DSCF1303
originalsecret: null
originalformat: null
o_height: null
o_width: null
datetaken: 2005-10-21 19:45:23
dateupload: 1134823367
tags: london routemaster route13 southhampstead swisscottage goldersgreen
license: 0
latitude: 51.546708
longitude: -0.179514
accuracy: 14
views: 101
interestingness: 183 out of 234

photo: 52565953 5f2eb1d941 31
owner: 17077619@N00
title: Solitude
originalsecret: null
originalformat: null
o_height: null
o_width: null
datetaken: 2004-04-14 12:33:32
dateupload: 1129343612
tags: flowers tulips holland
license: 0
latitude: 52.205607
longitude: 4.474010
accuracy: 12
views: 31
interestingness: 184 out of 234

photo: 65579255 40e9c4dca3 29
owner: 67502177@N00
title: Bouqets
originalsecret: null
originalformat: null
o_height: null
o_width: null
datetaken: 2005-11-19 12:43:31
dateupload: 1132597762
tags: portobelloroad flower tulip
license: 0
latitude: 51.521882
longitude: -0.100593
accuracy: 12
views: 122
interestingness: 185 out of 234

photo: 64999762 4b1331eaf9 32
owner: 95157450@N00
title: tulip chairs | slc airport
originalsecret: 4b1331eaf9
originalformat: jpg
o_height: 600
o_width: 800
datetaken: 2005-11-20 19:27:09
dateupload: 1132470559
tags: utah parkcity airport chair design
license: 1
latitude: 40.639683
longitude: -111.498785
accuracy: 12
views: 259
interestingness: 186 out of 234

photo: 72559684 29d6b940b9 34
owner: 49503152375@N01
title: Tulip Festival
originalsecret: 29d6b940b9
originalformat: jpg
o_height: null
o_width: null
datetaken: 2001-01-01 00:00:37
dateupload: 1134341061
tags: tulipfest albany
license: 1
latitude: 42.656749
longitude: -73.770360
accuracy: 13
views: 41
interestingness: 187 out of 234

photo: 1185507043 569e2df7f2 1308
owner: 89095523@N00
title: P4100004
originalsecret: null
originalformat: null
o_height: null
o_width: null
datetaken: 2003-04-10 11:14:16
dateupload: 1132799617
tags: floral
license: 0
latitude: 39.045419
longitude: -94.581127
accuracy: 13
views: 24
interestingness: 188 out of 234

photo: 62194501 973932282b 27
owner: 35266357@N00
title: Flower 05_resize
originalsecret: null
originalformat: null
o_height: null
o_width: null
datetaken: 2005-11-12 02:29:22
dateupload: 1131734239
tags: flower
license: 0
latitude: -35.065973
longitude: 149.040527
accuracy: 5
views: 8
interestingness: 189 out of 234

photo: 1185501421 653f24139c 1283
owner: 89095523@N00
title: 2004_0331Image0008
originalsecret: null
originalformat: null
o_height: null
o_width: null
datetaken: 2004-03-31 18:24:52
dateupload: 1132798383
tags: floral
license: 0
latitude: 39.041611
longitude: -94.592843
accuracy: 15
views: 42
interestingness: 190 out of 234

photo: 1186358922 8bb274a1fe 1195
owner: 89095523@N00
title: 2004_0331Image0013
originalsecret: null
originalformat: null
o_height: null
o_width: null
datetaken: 2004-03-31 18:27:15
dateupload: 1132798389
tags: floral
license: 0
latitude: 39.041611
longitude: -94.592843
accuracy: 15
views: 27
interestingness: 191 out of 234

photo: 1186358622 6ba7b242bc 1281
owner: 89095523@N00
title: 2004_0331Image0009
originalsecret: null
originalformat: null
o_height: null
o_width: null
datetaken: 2004-03-31 18:25:06
dateupload: 1132798386
tags: floral
license: 0
latitude: 39.041611
longitude: -94.592843
accuracy: 15
views: 31
interestingness: 192 out of 234

photo: 64746395 c86b4cf03e 28
owner: 58348846@N00
title: IM000935
originalsecret: c86b4cf03e
originalformat: jpg
o_height: null
o_width: null
datetaken: 2004-05-18 13:09:14
dateupload: 1132404369
tags: pink flower tulips
license: 0
latitude: 52.156558
longitude: -2.690792
accuracy: 12
views: 19
interestingness: 193 out of 234

photo: 64746054 a4dc5d64cc 29
owner: 58348846@N00
title: IM000516
originalsecret: a4dc5d64cc
originalformat: jpg
o_height: null
o_width: null
datetaken: 2003-05-04 17:07:04
dateupload: 1132404257
tags: pink flower tulip
license: 0
latitude: 52.156558
longitude: -2.690792
accuracy: 12
views: 66
interestingness: 194 out of 234

photo: 55953420 5e53d7c211 33
owner: 10662215@N00
title: VanEeden4a
originalsecret: 5e53d7c211
originalformat: jpg
o_height: 1920
o_width: 2560
datetaken: 2005-10-25 23:25:58
dateupload: 1130246758
tags: tulips invercargill new zealand spring
license: 0
latitude: -46.371213
longitude: 168.440752
accuracy: 12
views: 111
interestingness: 195 out of 234

photo: 55953419 a3bed165b6 33
owner: 10662215@N00
title: VanEeden3a
originalsecret: a3bed165b6
originalformat: jpg
o_height: 1920
o_width: 2560
datetaken: 2005-10-25 23:25:58
dateupload: 1130246758
tags: tulips invercargill new zealand spring
license: 0
latitude: -46.371213
longitude: 168.440752
accuracy: 12
views: 112
interestingness: 196 out of 234

photo: 55953418 b28dd47e4e 33
owner: 10662215@N00
title: VanEeden2.aJPG
originalsecret: b28dd47e4e
originalformat: jpg
o_height: 2560
o_width: 1920
datetaken: 2005-10-25 23:25:58
dateupload: 1130246758
tags: tulips invercargill new zealand spring
license: 0
latitude: -46.371213
longitude: 168.440752
accuracy: 12
views: 84
interestingness: 197 out of 234

photo: 55953423 e0df28cf90 31
owner: 10662215@N00
title: VanEeden6a
originalsecret: e0df28cf90
originalformat: jpg
o_height: 2560
o_width: 1920
datetaken: 2005-10-25 23:25:58
dateupload: 1130246758
tags: tulips invercargill new zealand spring
license: 0
latitude: -46.371213
longitude: 168.440752
accuracy: 12
views: 114
interestingness: 198 out of 234

photo: 55953417 214afa398c 30
owner: 10662215@N00
title: VanEeden1a
originalsecret: 214afa398c
originalformat: jpg
o_height: 2560
o_width: 1920
datetaken: 2005-10-25 23:25:58
dateupload: 1130246758
tags: tulips invercargill new zealand spring
license: 0
latitude: -46.371213
longitude: 168.440752
accuracy: 12
views: 74
interestingness: 199 out of 234

photo: 130641300 4f827e4412 50
owner: 57617604@N00
title: 
originalsecret: 4f827e4412
originalformat: jpg
o_height: null
o_width: null
datetaken: 2006-04-01 21:18:54
dateupload: 1134890087
tags: negative tulip
license: 5
latitude: 51.062658
longitude: 4.139174
accuracy: 16
views: 43
interestingness: 200 out of 234

photo: 72559819 f3969948e0 20
owner: 49503152375@N01
title: Trees
originalsecret: f3969948e0
originalformat: jpg
o_height: null
o_width: null
datetaken: 2001-01-01 00:00:56
dateupload: 1134341085
tags: tulipfest albany
license: 1
latitude: 42.656749
longitude: -73.770360
accuracy: 13
views: 29
interestingness: 201 out of 234

photo: 72559630 65b86fab4e 35
owner: 49503152375@N01
title: Trees
originalsecret: 65b86fab4e
originalformat: jpg
o_height: null
o_width: null
datetaken: 2001-01-01 00:00:32
dateupload: 1134341054
tags: tulipfest albany
license: 1
latitude: 42.656749
longitude: -73.770360
accuracy: 13
views: 25
interestingness: 202 out of 234

photo: 72560103 3d56722703 20
owner: 49503152375@N01
title: Minna on the Tree
originalsecret: 3d56722703
originalformat: jpg
o_height: null
o_width: null
datetaken: 2001-01-01 00:02:05
dateupload: 1134341126
tags: tulipfest albany
license: 1
latitude: 42.656749
longitude: -73.770360
accuracy: 13
views: 48
interestingness: 203 out of 234

photo: 72559798 b86469a5bd 35
owner: 49503152375@N01
title: The Playhouse
originalsecret: b86469a5bd
originalformat: jpg
o_height: null
o_width: null
datetaken: 2001-01-01 00:00:58
dateupload: 1134341081
tags: tulipfest albany
license: 1
latitude: 42.656749
longitude: -73.770360
accuracy: 13
views: 31
interestingness: 204 out of 234

photo: 72559978 6c0bf1c597 20
owner: 49503152375@N01
title: Angel and her Ex
originalsecret: 6c0bf1c597
originalformat: jpg
o_height: null
o_width: null
datetaken: 2001-01-01 00:01:55
dateupload: 1134341111
tags: tulipfest albany
license: 1
latitude: 42.656749
longitude: -73.770360
accuracy: 13
views: 51
interestingness: 205 out of 234

photo: 72559739 108b4da06e 35
owner: 49503152375@N01
title: The Playhouse
originalsecret: 108b4da06e
originalformat: jpg
o_height: null
o_width: null
datetaken: 2001-01-01 00:00:49
dateupload: 1134341069
tags: tulipfest albany
license: 1
latitude: 42.656749
longitude: -73.770360
accuracy: 13
views: 28
interestingness: 206 out of 234

photo: 72559558 bd09bd8be4 34
owner: 49503152375@N01
title: Trees
originalsecret: bd09bd8be4
originalformat: jpg
o_height: null
o_width: null
datetaken: 2001-01-01 00:00:26
dateupload: 1134341044
tags: tulipfest albany
license: 1
latitude: 42.656749
longitude: -73.770360
accuracy: 13
views: 21
interestingness: 207 out of 234

photo: 72559403 2b7b552689 20
owner: 49503152375@N01
title: Washington Park
originalsecret: 2b7b552689
originalformat: jpg
o_height: null
o_width: null
datetaken: 2001-01-01 00:00:17
dateupload: 1134341018
tags: tulipfest albany
license: 1
latitude: 42.656749
longitude: -73.770360
accuracy: 13
views: 28
interestingness: 208 out of 234

photo: 72559500 1b8c0568f9 35
owner: 49503152375@N01
title: The Washington Park Pond
originalsecret: 1b8c0568f9
originalformat: jpg
o_height: null
o_width: null
datetaken: 2001-01-01 00:00:23
dateupload: 1134341034
tags: tulipfest albany
license: 1
latitude: 42.656749
longitude: -73.770360
accuracy: 13
views: 34
interestingness: 209 out of 234

photo: 72559908 c205645c85 20
owner: 49503152375@N01
title: Washington Park Pond
originalsecret: c205645c85
originalformat: jpg
o_height: null
o_width: null
datetaken: 2001-01-01 00:01:28
dateupload: 1134341101
tags: tulipfest albany
license: 1
latitude: 42.656749
longitude: -73.770360
accuracy: 13
views: 27
interestingness: 210 out of 234

photo: 72559670 8957a2c65b 34
owner: 49503152375@N01
title: Trees
originalsecret: 8957a2c65b
originalformat: jpg
o_height: null
o_width: null
datetaken: 2001-01-01 00:00:35
dateupload: 1134341060
tags: tulipfest albany
license: 1
latitude: 42.656749
longitude: -73.770360
accuracy: 13
views: 25
interestingness: 211 out of 234

photo: 72559753 9440fdd404 20
owner: 49503152375@N01
title: Trees
originalsecret: 9440fdd404
originalformat: jpg
o_height: null
o_width: null
datetaken: 2001-01-01 00:00:37
dateupload: 1134341071
tags: tulipfest albany
license: 1
latitude: 42.656749
longitude: -73.770360
accuracy: 13
views: 33
interestingness: 212 out of 234

photo: 72559395 70aa72854f 20
owner: 49503152375@N01
title: Washington Park
originalsecret: 70aa72854f
originalformat: jpg
o_height: null
o_width: null
datetaken: 2001-01-01 00:00:17
dateupload: 1134341017
tags: tulipfest albany
license: 1
latitude: 42.656749
longitude: -73.770360
accuracy: 13
views: 27
interestingness: 213 out of 234

photo: 72560002 e72dab66d3 34
owner: 49503152375@N01
title: Washington Park Pond
originalsecret: e72dab66d3
originalformat: jpg
o_height: null
o_width: null
datetaken: 2001-01-01 00:02:50
dateupload: 1134341114
tags: tulipfest albany
license: 1
latitude: 42.656749
longitude: -73.770360
accuracy: 13
views: 34
interestingness: 214 out of 234

photo: 72559469 51e319e17b 34
owner: 49503152375@N01
title: The Playhouse
originalsecret: 51e319e17b
originalformat: jpg
o_height: null
o_width: null
datetaken: 2001-01-01 00:00:17
dateupload: 1134341028
tags: tulipfest albany
license: 1
latitude: 42.656749
longitude: -73.770360
accuracy: 13
views: 20
interestingness: 215 out of 234

photo: 72559895 3238cff062 20
owner: 49503152375@N01
title: Washington Park Pond
originalsecret: 3238cff062
originalformat: jpg
o_height: null
o_width: null
datetaken: 2001-01-01 00:01:21
dateupload: 1134341099
tags: tulipfest albany
license: 1
latitude: 42.656749
longitude: -73.770360
accuracy: 13
views: 23
interestingness: 216 out of 234

photo: 72559988 328184b52e 20
owner: 49503152375@N01
title: Fianc?e
originalsecret: 328184b52e
originalformat: jpg
o_height: null
o_width: null
datetaken: 2001-01-01 00:02:30
dateupload: 1134341113
tags: tulipfest albany
license: 1
latitude: 42.656749
longitude: -73.770360
accuracy: 13
views: 31
interestingness: 217 out of 234

photo: 64999774 f901b952f2 24
owner: 95157450@N00
title: tulip chairs | slc airport
originalsecret: f901b952f2
originalformat: jpg
o_height: 800
o_width: 600
datetaken: 2005-11-20 19:27:47
dateupload: 1132470566
tags: utah parkcity airport chair design
license: 1
latitude: 40.639683
longitude: -111.498785
accuracy: 12
views: 252
interestingness: 218 out of 234

photo: 65023915 884a197ebc 33
owner: 94046501@N00
title: Flowers
originalsecret: 884a197ebc
originalformat: jpg
o_height: null
o_width: null
datetaken: 2005-10-28 22:51:44
dateupload: 1132479377
tags: flowers nature kl klia
license: 2
latitude: 2.747990
longitude: 101.713660
accuracy: 16
views: 193
interestingness: 219 out of 234

photo: 50196405 822a54ac72 30
owner: 85203597@N00
title: flowers-red-1
originalsecret: 822a54ac72
originalformat: jpg
o_height: null
o_width: null
datetaken: 2005-10-07 21:51:07
dateupload: 1128685867
tags: 
license: 0
latitude: -35.289627
longitude: 149.135799
accuracy: 12
views: 122
interestingness: 220 out of 234

photo: 50196181 7220fb22d6 27
owner: 85203597@N00
title: flowers-4
originalsecret: 7220fb22d6
originalformat: jpg
o_height: null
o_width: null
datetaken: 2005-10-07 21:49:28
dateupload: 1128685768
tags: 
license: 0
latitude: -35.289627
longitude: 149.135799
accuracy: 12
views: 72
interestingness: 221 out of 234

photo: 50196437 ae44bd4ecc 24
owner: 85203597@N00
title: flowers-red-2
originalsecret: ae44bd4ecc
originalformat: jpg
o_height: null
o_width: null
datetaken: 2005-10-07 21:51:17
dateupload: 1128685877
tags: 
license: 0
latitude: -35.289627
longitude: 149.135799
accuracy: 12
views: 103
interestingness: 222 out of 234

photo: 50196329 1936f321c4 27
owner: 85203597@N00
title: flowers-pink-1
originalsecret: 1936f321c4
originalformat: jpg
o_height: null
o_width: null
datetaken: 2005-10-07 21:50:34
dateupload: 1128685834
tags: 
license: 0
latitude: -35.289627
longitude: 149.135799
accuracy: 12
views: 150
interestingness: 223 out of 234

photo: 50196118 ade6f751e4 24
owner: 85203597@N00
title: flowers-35
originalsecret: ade6f751e4
originalformat: jpg
o_height: null
o_width: null
datetaken: 2005-10-07 21:48:50
dateupload: 1128685730
tags: 
license: 0
latitude: -35.289627
longitude: 149.135799
accuracy: 12
views: 106
interestingness: 224 out of 234

photo: 50195402 11dbb230ec 29
owner: 85203597@N00
title: flowers-17
originalsecret: 11dbb230ec
originalformat: jpg
o_height: null
o_width: null
datetaken: 2005-10-07 21:44:20
dateupload: 1128685460
tags: 
license: 0
latitude: -35.289627
longitude: 149.135799
accuracy: 12
views: 82
interestingness: 225 out of 234

photo: 50195734 ec93a8d518 27
owner: 85203597@N00
title: flowers-26
originalsecret: ec93a8d518
originalformat: jpg
o_height: null
o_width: null
datetaken: 2005-10-07 21:46:18
dateupload: 1128685578
tags: 
license: 0
latitude: -35.289627
longitude: 149.135799
accuracy: 12
views: 98
interestingness: 226 out of 234

photo: 50195682 7285207f65 27
owner: 85203597@N00
title: flowers-25
originalsecret: 7285207f65
originalformat: jpg
o_height: null
o_width: null
datetaken: 2005-10-07 21:46:05
dateupload: 1128685565
tags: 
license: 0
latitude: -35.289627
longitude: 149.135799
accuracy: 12
views: 96
interestingness: 227 out of 234

photo: 65680360 251cfcef19 24
owner: 18438746@N00
title: Tulip festival
originalsecret: null
originalformat: null
o_height: null
o_width: null
datetaken: 2005-11-21 16:02:55
dateupload: 1132617775
tags: 
license: 0
latitude: 48.417410
longitude: -122.419710
accuracy: 13
views: 61
interestingness: 228 out of 234

photo: 63487415 dd5ba5c67b 33
owner: 64184609@N00
title: Bombrich/Bonheur tomb in montmartre with white tulip
originalsecret: a691f748b5
originalformat: jpg
o_height: 1228
o_width: 1818
datetaken: 2005-11-14 22:27:53
dateupload: 1132036073
tags: paris france summer 2005
license: 5
latitude: 48.887513
longitude: 2.331247
accuracy: 15
views: 152
interestingness: 229 out of 234

photo: 83968496 5665554477 37
owner: 48242731@N00
title: 36
originalsecret: aa81f571b7
originalformat: jpg
o_height: null
o_width: null
datetaken: 2004-01-02 07:20:05
dateupload: 1136749625
tags: scotland flora standrews
license: 0
latitude: 56.341513
longitude: -2.795097
accuracy: 16
views: 15
interestingness: 230 out of 234

photo: 38057554 2518060b94 29
owner: 60782460@N00
title: Enfuego
originalsecret: 2518060b94
originalformat: jpg
o_height: null
o_width: null
datetaken: 2004-04-17 11:25:16
dateupload: 1125275123
tags: cavehill flower louisville
license: 1
latitude: 38.245612
longitude: -85.718121
accuracy: 16
views: 27
interestingness: 231 out of 234

photo: 42766933 c2ff7f70f0 32
owner: 80365751@N00
title: tulip
originalsecret: null
originalformat: null
o_height: null
o_width: null
datetaken: 2005-05-29 11:34:46
dateupload: 1126554198
tags: 
license: 0
latitude: 45.500541
longitude: -73.578035
accuracy: 14
views: 19
interestingness: 232 out of 234

photo: 74625245 bb213e8192 41
owner: 30036325@N00
title: Yes, there are
originalsecret: bb213e8192
originalformat: jpg
o_height: null
o_width: null
datetaken: 2005-12-17 19:51:52
dateupload: 1134877912
tags: flower city s5500
license: 3
latitude: 43.262706
longitude: -2.929916
accuracy: 12
views: 61
interestingness: 233 out of 234

photo: 32448072 0b907316c3 21
owner: 90949376@N00
title: Colorful peppers
originalsecret: null
originalformat: null
o_height: null
o_width: null
datetaken: 2005-08-07 11:06:14
dateupload: 1123548680
tags: seattle pikestreetmarket
license: 0
latitude: 47.609027
longitude: -122.340724
accuracy: 16
views: 51
interestingness: 234 out of 234

photo: 77241200 34eb0612c4 39
owner: 45943501@N00
title: Golden Tulip pool
originalsecret: 34eb0612c4
originalformat: jpg
o_height: null
o_width: null
datetaken: 2004-01-02 01:56:18
dateupload: 1135535155
tags: tunis wsis
license: 3
latitude: 36.910646
longitude: 10.280971
accuracy: 11
views: 65
interestingness: 235 out of 234

photo: 77241226 ab18b3c5fb 39
owner: 45943501@N00
title: Golden Tulip pool
originalsecret: ab18b3c5fb
originalformat: jpg
o_height: null
o_width: null
datetaken: 2004-01-02 01:56:31
dateupload: 1135535159
tags: tunis wsis
license: 3
latitude: 36.910646
longitude: 10.280971
accuracy: 11
views: 30
interestingness: 236 out of 234

photo: 83989893 dd517abcc6 38
owner: 48242731@N00
title: tulip1
originalsecret: d9c049923f
originalformat: jpg
o_height: null
o_width: null
datetaken: 2004-01-02 07:22:15
dateupload: 1136752235
tags: scotland standrews
license: 0
latitude: 56.341513
longitude: -2.795097
accuracy: 16
views: 22
interestingness: 237 out of 234

photo: 72283511 f32fe7890b 35
owner: 49207637@N00
title: Tulips 2
originalsecret: null
originalformat: null
o_height: null
o_width: null
datetaken: 2005-12-10 22:24:40
dateupload: 1134278680
tags: places
license: 0
latitude: 38.927365
longitude: -77.047119
accuracy: 8
views: 35
interestingness: 238 out of 234

photo: 72282570 131c222b83 20
owner: 49207637@N00
title: Tulips 1
originalsecret: null
originalformat: null
o_height: null
o_width: null
datetaken: 2005-12-10 22:19:56
dateupload: 1134278396
tags: places
license: 0
latitude: 38.927365
longitude: -77.047119
accuracy: 8
views: 32
interestingness: 239 out of 234

photo: 56631345 68771b7fb5 24
owner: 58872339@N00
title: Tulip
originalsecret: null
originalformat: null
o_height: null
o_width: null
datetaken: 2005-10-27 11:00:49
dateupload: 1130434511
tags: 
license: 0
latitude: 52.282176
longitude: -1.522732
accuracy: 16
views: 42
interestingness: 240 out of 234

photo: 60170038 38145ea48d 33
owner: 50769931@N00
title: 100_1835.jpg
originalsecret: 38145ea48d
originalformat: jpg
o_height: null
o_width: null
datetaken: 2005-11-05 13:56:10
dateupload: 1131230677
tags: sdmb
license: 1
latitude: 37.770239
longitude: -122.509789
accuracy: 16
views: 333
interestingness: 241 out of 234

photo: 64293595 0c88687ee2 28
owner: 22121184@N00
title: Pink Tulip (Flower025)
originalsecret: null
originalformat: null
o_height: null
o_width: null
datetaken: 2005-02-15 11:06:10
dateupload: 1132264307
tags: 
license: 0
latitude: 40.418691
longitude: -80.047845
accuracy: 13
views: 12
interestingness: 242 out of 234

photo: 43915389 4d7c8de60e 31
owner: 63282172@N00
title: 042004a
originalsecret: null
originalformat: null
o_height: null
o_width: null
datetaken: 2004-04-20 18:04:08
dateupload: 1126920676
tags: 
license: 0
latitude: 38.899049
longitude: -77.028579
accuracy: 12
views: 2
interestingness: 243 out of 234

photo: 50437325 f4c4c4fcfc 24
owner: 91159873@N00
title: DSC01694
originalsecret: f4c4c4fcfc
originalformat: jpg
o_height: null
o_width: null
datetaken: 2004-01-24 14:22:02
dateupload: 1128762181
tags: 
license: 0
latitude: 23.969313
longitude: 120.469894
accuracy: 10
views: 47
interestingness: 244 out of 234

photo: 1015730142 d454b19d1f 1377
owner: 60133827@N00
title: DSCF0052.jpg
originalsecret: 957b0aadfd
originalformat: jpg
o_height: null
o_width: null
datetaken: 2005-09-25 03:16:21
dateupload: 1127664873
tags: 
license: 0
latitude: -42.865899
longitude: 147.295761
accuracy: 10
views: 1
interestingness: 245 out of 234

photo: 53331378 f4fe787295 29
owner: 42253636@N00
title: Floriade
originalsecret: f4fe787295
originalformat: jpg
o_height: null
o_width: null
datetaken: 2005-09-24 11:57:08
dateupload: 1129543178
tags: 
license: 0
latitude: -35.291169
longitude: 149.135627
accuracy: 12
views: 41
interestingness: 246 out of 234

photo: 63327953 77089f6516 32
owner: 37321624@N00
title: portsflowers
originalsecret: 77089f6516
originalformat: jpg
o_height: null
o_width: null
datetaken: 2005-11-14 13:05:47
dateupload: 1132002347
tags: 
license: 0
latitude: 44.222310
longitude: -76.516867
accuracy: 16
views: 10
interestingness: 247 out of 234


mintime: 1136861224.27 maxtime: 1142484374.73
numimgs: 221
total pages: 1
visiting only 1 pages ( up to 250 images)
photo: 111267003 0ba4ea6083 39
owner: 51035555243@N01
title: Tulips
originalsecret: 0ba4ea6083
originalformat: jpg
o_height: 1341
o_width: 2048
datetaken: 2006-03-01 10:24:41
dateupload: 1142159058
tags: sanfrancisco california city flowers red usa flower topf25 unitedstates tulips fav50 10 unitedstatesofamerica fav20 tulip soma yerbabuenagardens fav30 tullip tullips fav10 fav25 fav40 fav60 superfave
license: 2
latitude: 37.784927
longitude: -122.402007
accuracy: 16
views: 13363
interestingness: 1 out of 221

photo: 101608197 0e1e0cbb8e 43
owner: 55544800@N00
title: Tulipani
originalsecret: null
originalformat: null
o_height: null
o_width: null
datetaken: 2005-11-20 20:17:28
dateupload: 1140360374
tags: flowers red topf25 topv111 fiori tulipani fsftsblog interestingness91 i500
license: 0
latitude: 44.137962
longitude: 12.252695
accuracy: 15
views: 4221
interestingness: 2 out of 221

photo: 87842690 08ca24fc2b 40
owner: 51773358@N00
title: Ghost art
originalsecret: 08ca24fc2b
originalformat: jpg
o_height: 2000
o_width: 3008
datetaken: 2005-08-05 16:32:40
dateupload: 1137514466
tags: travel flower art abandoned 510fav russia creative svalbard arctic tulip ghosttown publicart forsakenplaces ruraldecay spitsbergen isfjorden settlement industrialdecay pyramiden thepyramid
license: 1
latitude: 78.428350
longitude: 14.203857
accuracy: 5
views: 6032
interestingness: 3 out of 221

photo: 110470109 4b5b30ffe4 47
owner: 52386368@N00
title: Sunset in a flower
originalsecret: 4b5b30ffe4
originalformat: jpg
o_height: null
o_width: null
datetaken: 2006-03-10 08:37:42
dateupload: 1142001462
tags: flower taggedout mexico bravo weeklysurvivor potw interestingness5 lubezky sergiolubezky explore10mar06 nikonstunninggallery
license: 0
latitude: 19.374464
longitude: -99.252988
accuracy: 16
views: 1781
interestingness: 4 out of 221

photo: 110433871 a956afeed1 46
owner: 45401958@N00
title: flower-24
originalsecret: a956afeed1
originalformat: jpg
o_height: null
o_width: null
datetaken: 2006-03-10 19:59:21
dateupload: 1141991961
tags: flower film closeup zeiss hongkong dof bokeh contax fujifilm 135 e6 nit liter rdpiii niter superhearts
license: 0
latitude: 22.280777
longitude: 114.188203
accuracy: 14
views: 1026
interestingness: 5 out of 221

photo: 95931759 f7dc06783a 29
owner: 62026855@N00
title: Throughlit
originalsecret: null
originalformat: null
o_height: null
o_width: null
datetaken: 2006-02-05 17:38:49
dateupload: 1139172584
tags: flowers light red colour yellow petals tulips translucent backlit simple markjones onetopfave i500
license: 0
latitude: 51.555995
longitude: -0.176178
accuracy: 16
views: 1447
